address,manipulated address,location,latitude,longitude
"Lublańska 13, Prądnik Czerwony, Prądnik Czerwony, Kraków, małopolskie","Lublańska 13, Prądnik Czerwony, Prądnik Czerwony, Kraków, małopolskie","13, Lublańska, Prądnik Czerwony, Kraków, województwo małopolskie, 31-410, Polska",50.08551545,19.96243108152333
"Gaik, Prądnik Biały, Kraków, małopolskie","Gaik, Prądnik Biały, Kraków, małopolskie","Gaik, Budzyń, Tonie, Prądnik Biały, Kraków, województwo małopolskie, 31-338, Polska",50.1097454,19.8858788
"al. 29 Listopada, Olsza, Prądnik Czerwony, Kraków, małopolskie","al. 29 Listopada, Olsza, Prądnik Czerwony, Kraków, małopolskie","Aleja 29 Listopada, Rogatka Warszawska, Olsza, Prądnik Czerwony, Kraków, województwo małopolskie, 31-425, Polska",50.0807428,19.9508195
"Brzozowa, Kazimierz, Stare Miasto, Kraków, małopolskie","Brzozowa, Kazimierz, Stare Miasto, Kraków, małopolskie","Brzozowa, Kazimierz, Stare Miasto, Kraków, województwo małopolskie, 31-039, Polska",50.0540934,19.9439961
"Władysława Taklińskiego 47, Opatkowice, Swoszowice, Kraków, małopolskie","Władysława Taklińskiego 47, Opatkowice, Swoszowice, Kraków, małopolskie","47, Władysława Taklińskiego, Zakarczmie, Opatkowice, Swoszowice, Kraków, województwo małopolskie, 30-499, Polska",49.9858191,19.907258197482857
"Klemensiewicza, Śródmieście, Kraków, małopolskie","Klemensiewicza, Śródmieście, Kraków, małopolskie","Zenona Klemensiewicza, Rogatka Warszawska, Olsza, Prądnik Czerwony, Kraków, województwo małopolskie, 31-482, Polska",50.0809595,19.9507548
"Floriańska, Stare Miasto, Stare Miasto, Kraków, małopolskie","Floriańska, Stare Miasto, Stare Miasto, Kraków, małopolskie","Floriańska, Stare Miasto, Kraków, województwo małopolskie, 31-019, Polska",50.0649001,19.9413698
"Lea, Łobzów, Krowodrza, Kraków, małopolskie","Lea, Łobzów, Krowodrza, Kraków, małopolskie","Juliusza Lea, Łobzów, Krowodrza, Kraków, województwo małopolskie, 30-070, Polska",50.0723293,19.9050999
"Wyki, Prądnik Biały, Kraków, małopolskie","Wyki, Prądnik Biały, Kraków, małopolskie","Kazimierza Wyki, Prądnik Biały, Kraków, województwo małopolskie, 31-277, Polska",50.0919588,19.9225314
"Bronowice Wielkie, Kraków, małopolskie","Bronowice Wielkie, Kraków, małopolskie","Bronowice Wielkie, Prądnik Biały, Kraków, województwo małopolskie, Polska",50.0944444,19.8822222
"Błażeja Czepca, Bronowice, Bronowice, Kraków, małopolskie","Błażeja Czepca, Bronowice, Bronowice, Kraków, małopolskie","Błażeja Czepca, Bronowice, Kraków, województwo małopolskie, 30-095, Polska",50.0809809,19.8966036
"Bronowicka, Dzielnica VI Bronowice, Kraków, małopolskie","Bronowicka, Dzielnica VI Bronowice, Kraków, małopolskie","Bronowicka, Bronowice, Kraków, województwo małopolskie, 30-124, Polska",50.0759556,19.90571
"Smoleńsk, Kraków, małopolskie","Smoleńsk, Kraków, małopolskie","Smoleńsk, Nowy Świat, Stare Miasto, Kraków, województwo małopolskie, 31-108, Polska",50.0585854,19.9281888
"Solna 1, Stare Podgórze, Kraków, małopolskie","Solna 1, Stare Podgórze, Kraków, małopolskie","1, Solna, Stare Podgórze, Podgórze, Kraków, województwo małopolskie, 30-527, Polska",50.04743735,19.954061951823384
"Szeroka, Kazimierz, Stare Miasto, Kraków, małopolskie","Szeroka, Kazimierz, Stare Miasto, Kraków, małopolskie","Szeroka, Kazimierz, Stare Miasto, Kraków, województwo małopolskie, 31-053, Polska",50.0532716,19.9470672
"Plac Dominikański, Stare Miasto, Kraków, małopolskie","Plac Dominikański, Stare Miasto, Kraków, małopolskie","Plac Dominikański, Stare Miasto, Kraków, województwo małopolskie, 31-043, Polska",50.059189,19.9385844
"Wawelska, Nowa Huta, Kraków, małopolskie","Wawelska, Nowa Huta, Kraków, małopolskie","Wawelska, Mistrzejowice, Kraków, województwo małopolskie, 31-618, Polska",50.0992153,19.9981078
"Sosnowiecka 30b, Bronowice Wielkie, Prądnik Biały, Kraków, małopolskie","Sosnowiecka 30b, Bronowice Wielkie, Prądnik Biały, Kraków, małopolskie","30B, Sosnowiecka, Bronowice Wielkie, Prądnik Biały, Kraków, województwo małopolskie, 31-345, Polska",50.09282875,19.88906175
"Dzielnica XIII Podgórze, Kraków, małopolskie","Dzielnica XIII Podgórze, Kraków, małopolskie","Podgórze, Kraków, województwo małopolskie, Polska",50.0430999,19.9529614
"Petrażyckiego, Opatkowice, Kraków, małopolskie","Petrażyckiego, Opatkowice, Kraków, małopolskie","Leona Petrażyckiego, Dąbrowy, Opatkowice, Swoszowice, Kraków, województwo małopolskie, 30-444, Polska",49.9843462,19.8969298
"Lilli Wenedy, Prokocim, Bieżanów-Prokocim, Kraków, małopolskie","Lilli Wenedy, Prokocim, Bieżanów-Prokocim, Kraków, małopolskie","Lilli Wenedy, Nowy Prokocim, Prokocim, Bieżanów-Prokocim, Kraków, województwo małopolskie, 30-833, Polska",50.018894,20.0066672
"Karmelicka, Stare Miasto, Kraków, małopolskie","Karmelicka, Stare Miasto, Kraków, małopolskie","Karmelicka, Piasek, Stare Miasto, Kraków, województwo małopolskie, 30-045, Polska",50.0688856,19.9267351
"Urzędnicza, Nowa Wieś, Kraków, małopolskie","Urzędnicza, Nowa Wieś, Kraków, małopolskie","Urzędnicza, Nowa Wieś, Krowodrza, Kraków, województwo małopolskie, 30-074, Polska",50.0722013,19.9198137
"Balicka, Mydlniki, Kraków, małopolskie","Balicka, Mydlniki, Kraków, małopolskie","Balicka, Mydlniki, Bronowice, Kraków, województwo małopolskie, 30-198, Polska",50.081372,19.858348
"Reduta, Prądnik Czerwony, Kraków, małopolskie","Reduta, Prądnik Czerwony, Kraków, małopolskie","Reduta, Prądnik Czerwony, Kraków, województwo małopolskie, 31-479, Polska",50.0944773,19.9868868
"Bieńczycka, Nowa Huta, Nowa Huta, Kraków, małopolskie","Bieńczycka, Nowa Huta, Nowa Huta, Kraków, małopolskie","Bieńczycka, Nowa Huta, Kraków, województwo małopolskie, 31-860, Polska",50.0772202,20.0235855
"Grochowa, Płaszów, Kraków, małopolskie","Grochowa, Płaszów, Kraków, małopolskie","Grochowa, Rogatka, Płaszów, Podgórze, Kraków, województwo małopolskie, 30-733, Polska",50.0356824,19.9970578
"Osiedle Centrum A, Centrum A, Kraków, małopolskie","Osiedle Centrum A, Centrum A, Kraków, małopolskie","Osiedle Centrum A, Nowa Huta, Kraków, województwo małopolskie, 31-923, Polska",50.0720051,20.0409261
"Ludwinowska, Dębniki, Kraków, małopolskie","Ludwinowska, Dębniki, Kraków, małopolskie","Ludwinowska, Osiedle Podwawelskie, Ludwinów, Dębniki, Kraków, województwo małopolskie, 30-332, Polska",50.042745,19.9354115
"Pielęgniarek, Krowodrza, Kraków, małopolskie","Pielęgniarek, Krowodrza, Kraków, małopolskie","Pielęgniarek, Krowodrza Górka, Prądnik Biały, Kraków, województwo małopolskie, 31-201, Polska",50.0831194,19.9345325
"Złocień, Bieżanów-Prokocim, Kraków, małopolskie","Złocień, Bieżanów-Prokocim, Kraków, małopolskie","Złocień, Bieżanów-Prokocim, Kraków, województwo małopolskie, Polska",50.0217136,20.0511722
"Zbrojarzy, Ruczaj, Dębniki, Kraków, małopolskie","Zbrojarzy, Ruczaj, Dębniki, Kraków, małopolskie","Zbrojarzy, Ruczaj, Dębniki, Kraków, województwo małopolskie, 30-412, Polska",50.0232057,19.9218035
"Osiedle Wysokie, Nowa Huta, Kraków, małopolskie","Osiedle Wysokie, Nowa Huta, Kraków, małopolskie","Osiedle Wysokie, Bieńczyce, Kraków, województwo małopolskie, 31-818, Polska",50.0893536,20.0195044
"Mała Góra, Bieżanów, Kraków, małopolskie","Mała Góra, Bieżanów, Kraków, małopolskie","Mała Góra, Bieżanów, Bieżanów-Prokocim, Kraków, województwo małopolskie, 30-696, Polska",50.0064281,20.0183689
"Dzielnica XII Bieżanów-Prokocim, Kraków, małopolskie","Dzielnica XII Bieżanów-Prokocim, Kraków, małopolskie","Bieżanów-Prokocim, Kraków, województwo małopolskie, Polska",50.01706235,20.022991856015395
"Długa, Śródmieście, Kraków, małopolskie","Długa, Śródmieście, Kraków, małopolskie","Długa, Kleparz, Stare Miasto, Kraków, województwo małopolskie, 30-004, Polska",50.0724492,19.9358475
"Bieżanowska, Bieżanów, Kraków, małopolskie","Bieżanowska, Bieżanów, Kraków, małopolskie","Bieżanowska, Osiedle Nowy Bieżanów-Północ, Bieżanów, Bieżanów-Prokocim, Kraków, województwo małopolskie, 30-853, Polska",50.0183702,20.0264727
"Kapelanka, Ludwinów, Kraków, małopolskie","Kapelanka, Ludwinów, Kraków, małopolskie","Kapelanka, Ludwinów, Dębniki, Kraków, województwo małopolskie, 30-347, Polska",50.0351831,19.9258132
"Wysłouchów, Podgórze Duchackie, Kraków, małopolskie","Wysłouchów, Podgórze Duchackie, Kraków, małopolskie","Marii i Bolesława Wysłouchów, Osiedle ""Kurdwanów Nowy"", Kurdwanów, Podgórze Duchackie, Kraków, województwo małopolskie, 30-611, Polska",50.0080626,19.9548721
"Kliny, Kraków, małopolskie","Kliny, Kraków, małopolskie","Kliny, Swoszowice, Kraków, województwo małopolskie, Polska",49.999983,19.9121738
"Emaus, Zwierzyniec, Kraków, małopolskie","Emaus, Zwierzyniec, Kraków, małopolskie","Emaus, Zwierzyniec, Kraków, województwo małopolskie, 30-213, Polska",50.0606141,19.8984091
"osiedle Górali, Nowa Huta, Nowa Huta, Kraków, małopolskie","osiedle Górali, Nowa Huta, Nowa Huta, Kraków, małopolskie","Osiedle Górali, Nowa Huta, Kraków, województwo małopolskie, Polska",50.0808003,20.0379026
"Grzegórzecka, Śródmieście, Kraków, małopolskie","Grzegórzecka, Śródmieście, Kraków, małopolskie","Grzegórzecka, Wesoła, Grzegórzki, Kraków, województwo małopolskie, 31-539, Polska",50.0578259,19.9583506
"Wielopole, Wesoła Zachód, Stare Miasto, Kraków, małopolskie","Wielopole, Wesoła Zachód, Stare Miasto, Kraków, małopolskie","Wielopole, Kazimierz, Stare Miasto, Kraków, województwo małopolskie, 31-030, Polska",50.0581332,19.9469064
"al. Jana Pawła II, Nowa Huta, Nowa Huta, Kraków, małopolskie","al. Jana Pawła II, Nowa Huta, Nowa Huta, Kraków, małopolskie","Aleja Jana Pawła II, Nowa Huta, Kraków, województwo małopolskie, 31-940, Polska",50.0725677,20.0252362
"Parkowa 16B, Stare Podgórze, Podgórze, Kraków, małopolskie","Parkowa 16B, Stare Podgórze, Podgórze, Kraków, małopolskie","16B, Parkowa, Stare Podgórze, Podgórze, Kraków, województwo małopolskie, 30-538, Polska",50.0398139,19.95210160768857
"Łobzowska, Kleparz, Kraków, małopolskie","Łobzowska, Kleparz, Kraków, małopolskie","Łobzowska, Piasek, Stare Miasto, Kraków, województwo małopolskie, 30-036, Polska",50.0706111,19.931853
"Osiedle Na Lotnisku, Na Lotnisku, Kraków, małopolskie","Osiedle Na Lotnisku, Na Lotnisku, Kraków, małopolskie","Osiedle Na Lotnisku, Bieńczyce, Kraków, województwo małopolskie, Polska",50.086931,20.01693104878946
"Podłącze, Wola Justowska, Zwierzyniec, Kraków, małopolskie","Podłącze, Wola Justowska, Zwierzyniec, Kraków, małopolskie","Podłącze, Wola Justowska, Zwierzyniec, Kraków, województwo małopolskie, 30-218, Polska",50.0681703,19.8773761
"Osiedle Na Skarpie, Nowa Huta, Nowa Huta, Kraków, małopolskie","Osiedle Na Skarpie, Nowa Huta, Nowa Huta, Kraków, małopolskie","Osiedle Na Skarpie, Nowa Huta, Kraków, województwo małopolskie, Polska",50.0682755,20.0457626
"M.Domagały, Bieżanów, Bieżanów-Prokocim, Kraków, małopolskie","M.Domagały, Bieżanów, Bieżanów-Prokocim, Kraków, małopolskie","Mariana Domagały, Złocień, Bieżanów-Prokocim, Kraków, województwo małopolskie, 30-798, Polska",50.0280265,20.0516127
"Filipa, Stare Miasto, Kraków, małopolskie","Filipa, Stare Miasto, Kraków, małopolskie","Świętego Filipa, Kleparz, Stare Miasto, Kraków, województwo małopolskie, 31-149, Polska",50.0685602,19.9394755
"Kleparz, Stare Miasto, Kraków, małopolskie","Kleparz, Stare Miasto, Kraków, małopolskie","Kleparz, Stare Miasto, Kraków, województwo małopolskie, Polska",50.0700397,19.9419902
"Bieńczycka 15c, Kraków, małopolskie","Bieńczycka 15c, Kraków, małopolskie","15C, Bieńczycka, Nowa Huta, Kraków, województwo małopolskie, 31-860, Polska",50.07788575,20.02145635
"Ugorek, Prądnik Czerwony, Kraków, małopolskie","Ugorek, Prądnik Czerwony, Kraków, małopolskie","Ugorek, Rakowice, Prądnik Czerwony, Kraków, województwo małopolskie, 31-455, Polska",50.079034,19.9838057
"Na Ustroniu, Ludwinów, Dębniki, Kraków, małopolskie","Na Ustroniu, Ludwinów, Dębniki, Kraków, małopolskie","Na Ustroniu, Osiedle Podwawelskie, Ludwinów, Dębniki, Kraków, województwo małopolskie, 31-051, Polska",50.046101,19.9317678
"Gminna, Dzielnica XI Podgórze Duchackie, Kraków, małopolskie","Gminna, Dzielnica XI Podgórze Duchackie, Kraków, małopolskie","Gminna, Wola Duchacka, Podgórze Duchackie, Kraków, województwo małopolskie, 30-633, Polska",50.0237324,19.9602401
"Stwosza, Stare Miasto, Kraków, małopolskie","Stwosza, Stare Miasto, Kraków, małopolskie","Ołtarz Wita Stwosza, Plac Mariacki, Stare Miasto, Kraków, województwo małopolskie, 31-041, Polska",50.0616386,19.9399988
"Tymotkowa, Ruczaj, Kraków, małopolskie","Tymotkowa, Ruczaj, Kraków, małopolskie","Tymotkowa, Osiedle Szuwarowa, Ruczaj, Dębniki, Kraków, województwo małopolskie, 30-392, Polska",50.0136239,19.8928738
"Nowosądecka, Bieżanów-Prokocim, Kraków, małopolskie","Nowosądecka, Bieżanów-Prokocim, Kraków, małopolskie","Nowosądecka, Kozłówka, Bieżanów-Prokocim, Kraków, województwo małopolskie, 30-641, Polska",50.0225403,19.9777167
"Chełmońskiego, Prądnik Biały, Kraków, małopolskie","Chełmońskiego, Prądnik Biały, Kraków, małopolskie","Józefa Chełmońskiego, Azory, Prądnik Biały, Kraków, województwo małopolskie, 31-306, Polska",50.0853627,19.9166436
"Bolesława Czuchajowskiego, Nowa Huta, Nowa Huta, Kraków, małopolskie","Bolesława Czuchajowskiego, Nowa Huta, Nowa Huta, Kraków, małopolskie","Bolesława Czuchajowskiego, Nowa Huta, Kraków, województwo małopolskie, 31-945, Polska",50.0781979,20.029615
"Józefa Wybickiego 5, Krowodrza Górka, Prądnik Biały, Kraków, małopolskie","Józefa Wybickiego 5, Krowodrza Górka, Prądnik Biały, Kraków, małopolskie","5, Józefa Wybickiego, Krowodrza Górka, Prądnik Biały, Kraków, województwo małopolskie, 31-261, Polska",50.08327995,19.92836626302164
"Zawiła, Zagrockiego, Borek Fałęcki, Łagiewniki-Borek Fałęcki, Kraków, małopolskie","Zawiła, Zagrockiego, Borek Fałęcki, Łagiewniki-Borek Fałęcki, Kraków, małopolskie","Zawiła, Kliny, Swoszowice, Kraków, województwo małopolskie, 30-423, Polska",50.0075496,19.9229509
"Totus Tuus Tesoro Verde Residence, Białe Morza, Łagiewniki-Borek Fałęcki, Kraków, małopolskie","Totus Tuus Tesoro Verde Residence, Białe Morza, Łagiewniki-Borek Fałęcki, Kraków, małopolskie","Totus Tuus, Białe Morza, Łagiewniki-Borek Fałęcki, Kraków, województwo małopolskie, 30-608, Polska",50.0123898,19.9378801
"Lea, Kraków, małopolskie","Lea, Kraków, małopolskie","Polana Juliusza Lea, Las Wolski, Zwierzyniec, Kraków, województwo małopolskie, Polska",50.0523186,19.85288239875174
"Andrzeja Frycza-Modrzewskiego, Żabiniec, Prądnik Biały, Kraków, małopolskie","Andrzeja Frycza-Modrzewskiego, Żabiniec, Prądnik Biały, Kraków, małopolskie","Andrzeja Frycza-Modrzewskiego, Żabiniec, Prądnik Biały, Kraków, województwo małopolskie, 31-200, Polska",50.0868284,19.9463737
"Wysokie, Wysokie, Kraków, małopolskie","Wysokie, Wysokie, Kraków, małopolskie","Hababa, 8, oOsiedle Wysokie, Bieńczyce, Kraków, województwo małopolskie, 31-819, Polska",50.0896472,20.0170119
"Jana Gutenberga, Ruczaj, Dębniki, Kraków, małopolskie","Jana Gutenberga, Ruczaj, Dębniki, Kraków, małopolskie","Jana Gutenberga, Osiedle Szuwarowa, Ruczaj, Dębniki, Kraków, województwo małopolskie, 30-348, Polska",50.0246833,19.9031077
"Jana Pietrusińskiego, Dębniki, Dębniki, Kraków, małopolskie","Jana Pietrusińskiego, Dębniki, Dębniki, Kraków, małopolskie","Jana Pietrusińskiego, Osiedle Robotnicze, Dębniki, Kraków, województwo małopolskie, 30-321, Polska",50.0446986,19.9106465
"Kaspra Żelechowskiego, Bronowice, Bronowice, Kraków, małopolskie","Kaspra Żelechowskiego, Bronowice, Bronowice, Kraków, małopolskie","Kaspra Żelechowskiego, Bronowice, Kraków, województwo małopolskie, 30-124, Polska",50.0745879,19.9031263
"Bratysławska, Prądnik Biały, Kraków, małopolskie","Bratysławska, Prądnik Biały, Kraków, małopolskie","Bratysławska, Krowodrza Górka, Prądnik Biały, Kraków, województwo małopolskie, 31-271, Polska",50.0839659,19.9335671
"Obrońców Tobruku, Kraków, małopolskie","Obrońców Tobruku, Kraków, małopolskie","Obrońców Tobruku, Wodka, Skotniki, Dębniki, Kraków, województwo małopolskie, 30-369, Polska",50.010033,19.8820444
"Magnolii, Ruczaj, Dębniki, Kraków, małopolskie","Magnolii, Ruczaj, Dębniki, Kraków, małopolskie","Magnolii, Zaborze, Ruczaj, Dębniki, Kraków, województwo małopolskie, 30-385, Polska",50.0229208,19.9136644
"Szpakowa, Piaski Wielkie, Podgórze Duchackie, Kraków, małopolskie","Szpakowa, Piaski Wielkie, Podgórze Duchackie, Kraków, małopolskie","Szpakowa, Podlesie, Piaski Wielkie, Podgórze Duchackie, Kraków, województwo małopolskie, 30-691, Polska",50.0130208,19.9792833
"Buszka, Krowodrza, Kraków, małopolskie","Buszka, Krowodrza, Kraków, małopolskie","Jana Buszka, Małe Błonia, Krowodrza, Kraków, województwo małopolskie, 30-133, Polska",50.0683981,19.897333
"Władysława Warneńczyka, Stare Podgórze, Podgórze, Kraków, małopolskie","Władysława Warneńczyka, Stare Podgórze, Podgórze, Kraków, małopolskie","Władysława Warneńczyka, Stare Podgórze, Podgórze, Kraków, województwo małopolskie, 30-520, Polska",50.0429895,19.9452113
"Anny Jagiellonki, Bieńczyce, Bieńczyce, Kraków, małopolskie","Anny Jagiellonki, Bieńczyce, Bieńczyce, Kraków, małopolskie","Anny Jagiellonki, Bieńczyce, Kraków, województwo małopolskie, 31-832, Polska",50.08906,20.0229966
"Lubostroń, Ruczaj, Kraków, małopolskie","Lubostroń, Ruczaj, Kraków, małopolskie","Lubostroń, Ruczaj, Dębniki, Kraków, województwo małopolskie, 30-392, Polska",50.0164056,19.8896205
"Babinicza, Kliny Zacisze, Kraków, małopolskie","Babinicza, Kliny Zacisze, Kraków, małopolskie","Babinicza, Kliny Zacisze, Kliny, Swoszowice, Kraków, województwo małopolskie, 30-389, Polska",50.001137,19.899539
"Topografów, Olszyny, Dębniki, Kraków, małopolskie","Topografów, Olszyny, Dębniki, Kraków, małopolskie","Topografów, Dom Nad Łąkami, Olszyny, Dębniki, Kraków, województwo małopolskie, 30-399, Polska",49.9850773,19.8751118
"Na Błonie, Bronowice Wielkie, Kraków, małopolskie","Na Błonie, Bronowice Wielkie, Kraków, małopolskie","Na Błonie, Osiedle Widok-Zarzecze, Bronowice, Kraków, województwo małopolskie, 30-146, Polska",50.0729546,19.8777465
"Portowa, Zabłocie, Podgórze, Kraków, małopolskie","Portowa, Zabłocie, Podgórze, Kraków, małopolskie","Portowa, Zabłocie, Podgórze, Kraków, województwo małopolskie, 30-709, Polska",50.0502962,19.9800843
"Glogera z ogródkiem, Prądnik Biały, Prądnik Biały, Kraków, małopolskie","Glogera z ogródkiem, Prądnik Biały, Prądnik Biały, Kraków, małopolskie","Zygmunta Glogera, Prądnik Biały, Kraków, województwo małopolskie, 31-226, Polska",50.1035703,19.9268562
"Śliska, Podgórze, Kraków, małopolskie","Śliska, Podgórze, Kraków, małopolskie","Śliska, Stare Podgórze, Podgórze, Kraków, województwo małopolskie, 30-516, Polska",50.039545,19.9411694
"Dworska, Dębniki, Kraków, małopolskie","Dworska, Dębniki, Kraków, małopolskie","Dworska, Osiedle Podwawelskie, Ludwinów, Dębniki, Kraków, województwo małopolskie, 30-312, Polska",50.0446491,19.9259657
"gen. Romana Sołtyka, Wesoła Wschód, Grzegórzki, Kraków, małopolskie","gen. Romana Sołtyka, Wesoła Wschód, Grzegórzki, Kraków, małopolskie","Generała Romana Sołtyka, Wesoła II, Grzegórzki, Kraków, województwo małopolskie, 31-529, Polska",50.0604632,19.9506158
"Składowa, Krowodrza, Krowodrza, Kraków, małopolskie","Składowa, Krowodrza, Krowodrza, Kraków, małopolskie","Składowa, Nowy Kleparz, Krowodrza, Kraków, województwo małopolskie, 30-010, Polska",50.0801614,19.9310223
"al. płk. Władysława Beliny-Prażmowskiego, Osiedle Oficerskie, Grzegórzki, Kraków, małopolskie","al. płk. Władysława Beliny-Prażmowskiego, Osiedle Oficerskie, Grzegórzki, Kraków, małopolskie","Aleja Pułkownika Władysława Beliny-Prażmowskiego, Osiedle Oficerskie, Grzegórzki, Kraków, województwo małopolskie, 31-514, Polska",50.0714132,19.9588409
"Okólna, Dzielnica XII Bieżanów-Prokocim, Kraków, małopolskie","Okólna, Dzielnica XII Bieżanów-Prokocim, Kraków, małopolskie","Okólna, Kozłówka, Bieżanów-Prokocim, Kraków, województwo małopolskie, 30-667, Polska",50.0164142,19.9837781
"Kolejowa, Podgórze, Kraków, małopolskie","Kolejowa, Podgórze, Kraków, małopolskie","Kolejowa, Kabel, Podgórze, Kraków, województwo małopolskie, 30-813, Polska",50.0288686,19.9889498
"Szeroka, Śródmieście, Kraków, małopolskie","Szeroka, Śródmieście, Kraków, małopolskie","Szeroka, Kazimierz, Stare Miasto, Kraków, województwo małopolskie, 31-053, Polska",50.0532716,19.9470672
"Wizjonerów, Kraków, małopolskie","Wizjonerów, Kraków, małopolskie","Wizjonerów, Bronowice Małe, Bronowice, Kraków, województwo małopolskie, 31-356, Polska",50.0846035,19.8861483
"Jagodowa, Borek Fałęcki, Kraków, małopolskie","Jagodowa, Borek Fałęcki, Kraków, małopolskie","Jagodowa, Borek Fałęcki, Łagiewniki-Borek Fałęcki, Kraków, województwo małopolskie, 30-427, Polska",50.013249,19.9183419
"Urbanistów, Na Wzgórzach, Kraków, małopolskie","Urbanistów, Na Wzgórzach, Kraków, małopolskie","Urbanistów, Wzgórza Krzesławickie, Kraków, województwo małopolskie, 31-724, Polska",50.0968482,20.063275
"Gaik, Tonie, Prądnik Biały, Kraków, małopolskie","Gaik, Tonie, Prądnik Biały, Kraków, małopolskie","Gaik, Budzyń, Tonie, Prądnik Biały, Kraków, województwo małopolskie, 31-338, Polska",50.1097454,19.8858788
"Macieja Dębskiego, Kliny, Swoszowice, Kraków, małopolskie","Macieja Dębskiego, Kliny, Swoszowice, Kraków, małopolskie","Macieja Dębskiego, Gaik, Opatkowice, Swoszowice, Kraków, województwo małopolskie, 30-499, Polska",49.9885772,19.9066078
"Osiedle Kombatantów, Mistrzejowice, Kraków, małopolskie","Osiedle Kombatantów, Mistrzejowice, Kraków, małopolskie","Osiedle Kombatantów, Mistrzejowice, Kraków, województwo małopolskie, 31-630, Polska",50.0925382,20.008974688139368
"Na Błonie, Krowodrza, Kraków, małopolskie","Na Błonie, Krowodrza, Kraków, małopolskie","Na Błonie, Osiedle Widok-Zarzecze, Bronowice, Kraków, województwo małopolskie, 30-146, Polska",50.0729546,19.8777465
"Karola Bunscha, Skotniki, Dębniki, Kraków, małopolskie","Karola Bunscha, Skotniki, Dębniki, Kraków, małopolskie","Karola Bunscha, Wodka, Skotniki, Dębniki, Kraków, województwo małopolskie, 30-369, Polska",50.0074824,19.8808216
"Starego Dębu, Bronowice Wielkie, Prądnik Biały, Kraków, małopolskie","Starego Dębu, Bronowice Wielkie, Prądnik Biały, Kraków, małopolskie","Starego Dębu, Bronowice Wielkie, Prądnik Biały, Kraków, województwo małopolskie, 31-355, Polska",50.101904,19.8688625
"Szymańskiego, Kraków, małopolskie","Szymańskiego, Kraków, małopolskie","Edwarda Szymańskiego, Branice, Nowa Huta, Kraków, województwo małopolskie, 31-985, Polska",50.070546,20.1436538
"Stefanii Sempołowskiej, Wola Duchacka, Podgórze Duchackie, Kraków, małopolskie","Stefanii Sempołowskiej, Wola Duchacka, Podgórze Duchackie, Kraków, małopolskie","Stefanii Sempołowskiej, Wola Duchacka, Podgórze Duchackie, Kraków, województwo małopolskie, 30-655, Polska",50.0193828,19.957427
"Gromadzka, Płaszów, Podgórze, Kraków, małopolskie","Gromadzka, Płaszów, Podgórze, Kraków, małopolskie","Gromadzka, Płaszów, Podgórze, Kraków, województwo małopolskie, 30-720, Polska",50.0363616,19.9823222
"Chmielna, Kurdwanów, Kraków, małopolskie","Chmielna, Kurdwanów, Kraków, małopolskie","Chmielna, Osiedle ""Kurdwanów Nowy"", Kurdwanów, Podgórze Duchackie, Kraków, województwo małopolskie, 30-613, Polska",50.013136,19.9461281
"Wicherkiewicza, Dębniki, Kraków, małopolskie","Wicherkiewicza, Dębniki, Kraków, małopolskie","Profesora Bolesława Wiktora Wicherkiewicza, Kliny Zacisze, Kliny, Swoszowice, Kraków, województwo małopolskie, 30-389, Polska",49.9996656,19.8970292
"Chełm, Zwierzyniec, Kraków, małopolskie","Chełm, Zwierzyniec, Kraków, małopolskie","Chełm, Zwierzyniec, Kraków, województwo małopolskie, Polska",50.067532,19.8490193
"Brązownicza, Kraków, małopolskie","Brązownicza, Kraków, małopolskie","Brązownicza, Małe Błonia, Krowodrza, Kraków, województwo małopolskie, 30-142, Polska",50.0689686,19.892385
"Gazowa, Kazimierz, Stare Miasto, Kraków, małopolskie","Gazowa, Kazimierz, Stare Miasto, Kraków, małopolskie","Gazowa, Kazimierz, Stare Miasto, Kraków, województwo małopolskie, 31-060, Polska",50.0488623,19.9466823
"Okulickiego, Bieńczyce, Kraków, małopolskie","Okulickiego, Bieńczyce, Kraków, małopolskie","Generała Leopolda Okulickiego, Osiedle Złotej Jesieni, Bieńczyce, Kraków, województwo małopolskie, 31-638, Polska",50.0932365,20.0299193
"Grochowska, Grzegórzki, Kraków, małopolskie","Grochowska, Grzegórzki, Kraków, małopolskie","Grochowska, Osiedle Oficerskie, Grzegórzki, Kraków, województwo małopolskie, 31-520, Polska",50.0741834,19.958013
"Wyszyńskiego, Rżąka, Kraków, małopolskie","Wyszyńskiego, Rżąka, Kraków, małopolskie","Księdza Prymasa Stefana Wyszyńskiego, Rżąka, Bieżanów-Prokocim, Kraków, województwo małopolskie, 30-695, Polska",50.0074901,20.0086377
"Kapelanka 10, Dębniki, Dębniki, Kraków, małopolskie","Kapelanka 10, Dębniki, Dębniki, Kraków, małopolskie","10, Kapelanka, Zakrzówek, Dębniki, Kraków, województwo małopolskie, 30-347, Polska",50.04030835,19.92354978859223
"Zaułek Wileński, Olsza, Kraków, małopolskie","Zaułek Wileński, Olsza, Kraków, małopolskie","Zaułek Wileński, Wiśniowa, Olsza, Prądnik Czerwony, Kraków, województwo małopolskie, 31-413, Polska",50.0825448,19.953225
"Morcinka, Wzgórza Krzesławickie, Kraków, małopolskie","Morcinka, Wzgórza Krzesławickie, Kraków, małopolskie","Gustawa Morcinka, Zesławice, Wzgórza Krzesławickie, Kraków, województwo małopolskie, 31-762, Polska",50.106026,20.0450574
"Przy Arce, Kraków, małopolskie","Przy Arce, Kraków, małopolskie","Osiedle Przy Arce, Bieńczyce, Kraków, województwo małopolskie, Polska",50.083325900000006,20.02913619815253
"Podkowińskiego, Prądnik Biały, Kraków, małopolskie","Podkowińskiego, Prądnik Biały, Kraków, małopolskie","Władysława Podkowińskiego, Azory, Prądnik Biały, Kraków, województwo małopolskie, 31-321, Polska",50.0849586,19.8949096
"Strzelców 7c, Prądnik Czerwony, Prądnik Czerwony, Kraków, małopolskie","Strzelców 7c, Prądnik Czerwony, Prądnik Czerwony, Kraków, małopolskie","7C, Strzelców, Prądnik Czerwony, Kraków, województwo małopolskie, 31-422, Polska",50.0922631,19.970282652651008
"Lea, Krowodrza, Kraków, małopolskie","Lea, Krowodrza, Kraków, małopolskie","Juliusza Lea, Łobzów, Krowodrza, Kraków, województwo małopolskie, 30-070, Polska",50.0723293,19.9050999
"osiedle Piastów, Mistrzejowice, Mistrzejowice, Kraków, małopolskie","osiedle Piastów, Mistrzejowice, Mistrzejowice, Kraków, małopolskie","Osiedle Piastów, Mistrzejowice, Kraków, województwo małopolskie, Polska",50.1003776,20.02101742976312
"Krokusowa, Ruczaj, Dębniki, Kraków, małopolskie","Krokusowa, Ruczaj, Dębniki, Kraków, małopolskie","Krokusowa, Zaborze, Ruczaj, Dębniki, Kraków, województwo małopolskie, 30-431, Polska",50.0237228,19.9188264
"Dąbie, Grzegórzki, Kraków, małopolskie","Dąbie, Grzegórzki, Kraków, małopolskie","Dąbie, Grzegórzki, Kraków, województwo małopolskie, 31-560, Polska",50.0594368,19.9791419
"Kobierzyńska 130, Ruczaj, Kraków, małopolskie","Kobierzyńska 130, Ruczaj, Kraków, małopolskie","Kreator, 130, Kobierzyńska, Osiedle Szuwarowa, Ruczaj, Dębniki, Kraków, województwo małopolskie, 30-382, Polska",50.0212345,19.9094027
"Tomasza, Śródmieście, Kraków, małopolskie","Tomasza, Śródmieście, Kraków, małopolskie","Kościół pw. Świętego Tomasza Apostoła, Szpitalna, Stare Miasto, Kraków, województwo małopolskie, 31-024, Polska",50.062474300000005,19.940753678621007
"Pawlikowskiego, Stare Miasto, Kraków, małopolskie","Pawlikowskiego, Stare Miasto, Kraków, małopolskie","Tadeusza Pawlikowskiego, Piasek, Stare Miasto, Kraków, województwo małopolskie, 31-127, Polska",50.0678098,19.9268383
"Federowicza, Kraków Podgórze, Kraków, małopolskie","Federowicza, Kraków Podgórze, Kraków, małopolskie","Jana Kantego Federowicza, Wodka, Skotniki, Dębniki, Kraków, województwo małopolskie, 30-369, Polska",50.0130679,19.8836852
"os. Szkolne, Nowa Huta, Nowa Huta, Kraków, małopolskie","os. Szkolne, Nowa Huta, Nowa Huta, Kraków, małopolskie","Osiedle Szkolne, Nowa Huta, Kraków, województwo małopolskie, Polska",50.0774958,20.0482373
"Osiedle Albertyńskie, Nowa Huta, Kraków, małopolskie","Osiedle Albertyńskie, Nowa Huta, Kraków, małopolskie","Osiedle Albertyńskie, Bieńczyce, Kraków, województwo małopolskie, Polska",50.0814309,20.0176277
"Chodkiewicza, Śródmieście, Kraków, małopolskie","Chodkiewicza, Śródmieście, Kraków, małopolskie","Jana Karola Chodkiewicza, Grzegórzki, Kraków, województwo małopolskie, 31-534, Polska",50.0562553,19.9538028
"Brogi, Prądnik Czerwony, Kraków, małopolskie","Brogi, Prądnik Czerwony, Kraków, małopolskie","Brogi, Olsza II, Olsza, Prądnik Czerwony, Kraków, województwo małopolskie, 31-436, Polska",50.0818588,19.9626728
"Kmieca, Krowodrza, Kraków, małopolskie","Kmieca, Krowodrza, Kraków, małopolskie","Kmieca, Krowodrza, Kraków, województwo małopolskie, 30-022, Polska",50.0779072,19.9227358
"Pachońskiego, Prądnik Biały, Kraków, małopolskie","Pachońskiego, Prądnik Biały, Kraków, małopolskie","Henryka Pachońskiego, Prądnik Biały, Kraków, województwo małopolskie, 31-223, Polska",50.0935683,19.9225386
"Skotnicka, Ruczaj, Kraków, małopolskie","Skotnicka, Ruczaj, Kraków, małopolskie","Skotnicka, Tyniec, Dębniki, Kraków, województwo małopolskie, 30-397, Polska",49.9920358,19.8490552
"Fredry, Łagiewniki, Kraków, małopolskie","Fredry, Łagiewniki, Kraków, małopolskie","Aleksandra Fredry, Łagiewniki, Łagiewniki-Borek Fałęcki, Kraków, województwo małopolskie, 30-605, Polska",50.0241428,19.9421469
"Osiedle Kalinowe, Kalinowe, Kraków, małopolskie","Osiedle Kalinowe, Kalinowe, Kraków, małopolskie","Osiedle Kalinowe, Bieńczyce, Kraków, województwo małopolskie, Polska",50.091117,20.013326731946403
"Witkowicka, Kraków, małopolskie","Witkowicka, Kraków, małopolskie","Witkowicka, Witkowice-Górka Narodowa Zachód, Witkowice, Prądnik Biały, Kraków, województwo małopolskie, 31-235, Polska",50.1083934,19.9463968
"Bracka, Stare Miasto, Stare Miasto, Kraków, małopolskie","Bracka, Stare Miasto, Stare Miasto, Kraków, małopolskie","Bracka, Stare Miasto, Kraków, województwo małopolskie, 31-005, Polska",50.0598698,19.9362162
"Kronikarza Galla, Krowodrza, Kraków, małopolskie","Kronikarza Galla, Krowodrza, Kraków, małopolskie","Kronikarza Galla, Łobzów, Krowodrza, Kraków, województwo małopolskie, 30-076, Polska",50.0733219,19.9142933
"Osiedle Zgody, Nowa Huta, Nowa Huta, Kraków, małopolskie","Osiedle Zgody, Nowa Huta, Nowa Huta, Kraków, małopolskie","Osiedle Zgody, Nowa Huta, Kraków, województwo małopolskie, Polska",50.0765676,20.0356877
"Bandtkiego, Bronowice, Kraków, małopolskie","Bandtkiego, Bronowice, Kraków, małopolskie","Jerzego Samuela Bandtkiego, Bronowice, Kraków, województwo małopolskie, 30-129, Polska",50.0753898,19.898709
"Kącik, Dzielnica XIII Podgórze, Kraków, małopolskie","Kącik, Dzielnica XIII Podgórze, Kraków, małopolskie","Kącik, Stare Podgórze, Podgórze, Kraków, województwo małopolskie, 30-550, Polska",50.0473022,19.955952
"Głowackiego, Bronowice, Kraków, małopolskie","Głowackiego, Bronowice, Kraków, małopolskie","Bartosza Głowackiego, Bronowice, Kraków, województwo małopolskie, 30-084, Polska",50.0775737,19.9042255
"Sienna - Rynek Główny - Stare Miasto, Świętego Krzyża, Stare Miasto, Stare Miasto, Kraków, małopolskie","Sienna - Rynek Główny - Stare Miasto, Świętego Krzyża, Stare Miasto, Stare Miasto, Kraków, małopolskie","Sienna, Stare Miasto, Kraków, województwo małopolskie, 30-960, Polska",50.0604421,19.9411509
"Heltmana, Podgórze Duchackie, Kraków, małopolskie","Heltmana, Podgórze Duchackie, Kraków, małopolskie","Wiktora Heltmana, Wola Duchacka, Podgórze Duchackie, Kraków, województwo małopolskie, 30-625, Polska",50.0254303,19.9701109
"osiedle Centrum A, Nowa Huta, Nowa Huta, Kraków, małopolskie","osiedle Centrum A, Nowa Huta, Nowa Huta, Kraków, małopolskie","Osiedle Centrum A, Nowa Huta, Kraków, województwo małopolskie, 31-923, Polska",50.0720051,20.0409261
"Obopólna, Łobzów, Kraków, małopolskie","Obopólna, Łobzów, Kraków, małopolskie","Obopólna, Łobzów, Krowodrza, Kraków, województwo małopolskie, 31-145, Polska",50.0721983,19.9064101
"Osiedle Krowodrza Górka, Krowodrza, Kraków, małopolskie","Osiedle Krowodrza Górka, Krowodrza, Kraków, małopolskie","Krowodrza Górka, Prądnik Biały, Kraków, województwo małopolskie, Polska",50.0887692,19.9299753
"Wawel, Kraków, małopolskie","Wawel, Kraków, małopolskie","Wawel, Kraków, województwo małopolskie, 31-003, Polska",50.0547467,19.9361073
"Żywiecka, Kraków, małopolskie","Żywiecka, Kraków, małopolskie","Żywiecka, Ruczaj, Łagiewniki-Borek Fałęcki, Dębniki, Kraków, województwo małopolskie, 30-383, Polska",50.0100537,19.907445
"Gurgacza – 19, Księdza Władysława Gurgacza, Grzegórzki, Grzegórzki, Kraków, małopolskie","Gurgacza – 19, Księdza Władysława Gurgacza, Grzegórzki, Grzegórzki, Kraków, małopolskie","Księdza Władysława Gurgacza, Grzegórzki, Kraków, województwo małopolskie, 31-537, Polska",50.0577347,19.9498574
"Robla, Wola Justowska, Kraków, małopolskie","Robla, Wola Justowska, Kraków, małopolskie","Jana Zygmunta Robla, Wola Justowska, Zwierzyniec, Kraków, województwo małopolskie, 30-217, Polska",50.0650609,19.8821664
"Grzegórzeckiej, Grzegórzki, Grzegórzki, Kraków, małopolskie","Grzegórzeckiej, Grzegórzki, Grzegórzki, Kraków, małopolskie","Grzegórzecka, Wesoła, Grzegórzki, Kraków, województwo małopolskie, 31-539, Polska",50.0578259,19.9583506
"Halczyna, Bronowice, Kraków, małopolskie","Halczyna, Bronowice, Kraków, małopolskie","Wojciecha Halczyna, Bronowice, Kraków, województwo małopolskie, 30-085, Polska",50.0800574,19.9057321
"Wysockiej, Czyżyny, Kraków, małopolskie","Wysockiej, Czyżyny, Kraków, małopolskie","Stanisławy Wysockiej, Czyżyny, Kraków, województwo małopolskie, 31-868, Polska",50.0730561,20.0027724
"Pszona, Śródmieście, Kraków, małopolskie","Pszona, Śródmieście, Kraków, małopolskie","Mieczysława Pszona, Ugorek, Rakowice, Prądnik Czerwony, Kraków, województwo małopolskie, 31-460, Polska",50.0783572,19.9776202
"Żelazna, Przedmieście Warszawskie, Stare Miasto, Kraków, małopolskie","Żelazna, Przedmieście Warszawskie, Stare Miasto, Kraków, małopolskie","Żelazna, Przedmieście Warszawskie, Stare Miasto, Kraków, województwo małopolskie, 31-404, Polska",50.0745345,19.9464297
"Cegielniana, Cegielniana, Łagiewniki-Borek Fałęcki, Kraków, małopolskie","Cegielniana, Cegielniana, Łagiewniki-Borek Fałęcki, Kraków, małopolskie","Cegielniana, Łagiewniki-Borek Fałęcki, Kraków, województwo małopolskie, 30-404, Polska",50.0278052,19.9331999
"Franciszka Kniaźnina, Mistrzejowice, Mistrzejowice, Kraków, małopolskie","Franciszka Kniaźnina, Mistrzejowice, Mistrzejowice, Kraków, małopolskie","Franciszka Kniaźnina, Mistrzejowice, Kraków, województwo małopolskie, 31-635, Polska",50.088329,19.9940409
"Tetmajera 12/23, Bronowice Małe, Kraków, małopolskie","Tetmajera 12/23, Bronowice Małe, Kraków, małopolskie","Włodzimierza Tetmajera, Bronowice Małe, Bronowice, Kraków, województwo małopolskie, 31-080, Polska",50.0950069,19.8663291
"Krowoderska, Piasek, Stare Miasto, Kraków, małopolskie","Krowoderska, Piasek, Stare Miasto, Kraków, małopolskie","Krowoderska, Piasek, Stare Miasto, Kraków, województwo małopolskie, 31-141, Polska",50.0675007,19.9377243
"Wenecja, Stare Miasto, Kraków, małopolskie","Wenecja, Stare Miasto, Kraków, małopolskie","Wenecja, Piasek, Stare Miasto, Kraków, województwo małopolskie, 31-117, Polska",50.0612135,19.9259089
"Eliasza Radzikowskiego, Bronowice Małe, Bronowice, Kraków, małopolskie","Eliasza Radzikowskiego, Bronowice Małe, Bronowice, Kraków, małopolskie","Walerego Eliasza Radzikowskiego, Bronowice Małe, Bronowice, Kraków, województwo małopolskie, 31-343, Polska",50.0900313,19.8834966
"Aleja Juliusza Słowackiego, Śródmieście, Kraków, małopolskie","Aleja Juliusza Słowackiego, Śródmieście, Kraków, małopolskie","Aleja Juliusza Słowackiego, Nowy Kleparz, Krowodrza, Kraków, województwo małopolskie, 31-148, Polska",50.0736751,19.937842
"Świętego Jana, Stare Miasto, Stare Miasto, Kraków, małopolskie","Świętego Jana, Stare Miasto, Stare Miasto, Kraków, małopolskie","Świętego Jana, Stare Miasto, Kraków, województwo małopolskie, 31-017, Polska",50.0631412,19.9385853
"Kobierzyńska, Zakrzówek, Dębniki, Kraków, małopolskie","Kobierzyńska, Zakrzówek, Dębniki, Kraków, małopolskie","Kobierzyńska, Zakrzówek, Dębniki, Kraków, województwo małopolskie, 30-364, Polska",50.0330252,19.9218406
"Czarnogórska, Wola Duchacka, Podgórze Duchackie, Kraków, małopolskie","Czarnogórska, Wola Duchacka, Podgórze Duchackie, Kraków, małopolskie","Czarnogórska, Wola Duchacka, Podgórze Duchackie, Kraków, województwo małopolskie, 30-638, Polska",50.0197183,19.9709187
"Meiera, Górka Narodowa, Kraków, małopolskie","Meiera, Górka Narodowa, Kraków, małopolskie","Księdza Józefa Meiera, Górka Narodowa, Prądnik Biały, Kraków, województwo małopolskie, 31-241, Polska",50.0988387,19.9704163
"Lilli Wenedy, Prokocim, Kraków, małopolskie","Lilli Wenedy, Prokocim, Kraków, małopolskie","Lilli Wenedy, Nowy Prokocim, Prokocim, Bieżanów-Prokocim, Kraków, województwo małopolskie, 30-833, Polska",50.018894,20.0066672
"Halszki, Krowodrza, Krowodrza, Kraków, małopolskie","Halszki, Krowodrza, Krowodrza, Kraków, małopolskie","Porucznika Jerzego Halszki, Osiedle ""Kurdwanów Nowy"", Kurdwanów, Podgórze Duchackie, Kraków, województwo małopolskie, 30-612, Polska",50.0118424,19.9492546
"Skwerowa 52, Dębniki, Dębniki, Kraków, małopolskie","Skwerowa 52, Dębniki, Dębniki, Kraków, małopolskie","52, Skwerowa, Dębniki, Kraków, województwo małopolskie, 30-306, Polska",50.0480302,19.9276702
"Agatowa, Bieżanów, Kraków, małopolskie","Agatowa, Bieżanów, Kraków, małopolskie","Agatowa, Osiedle Kolejowe, Złocień, Bieżanów-Prokocim, Kraków, województwo małopolskie, 30-758, Polska",50.022046,20.0461313
"Porzeczkowa, Witkowice, Prądnik Biały, Kraków, małopolskie","Porzeczkowa, Witkowice, Prądnik Biały, Kraków, małopolskie","Porzeczkowa, Osiedle Witkowice Nowe, Witkowice, Prądnik Biały, Kraków, województwo małopolskie, 31-235, Polska",50.1026722,19.9452368
"Tonie, Kraków, małopolskie","Tonie, Kraków, małopolskie","Tonie, Prądnik Biały, Kraków, województwo małopolskie, Polska",50.1128342,19.8978932
"os. Wolfganga Amadeusa Mozarta, Prądnik Biały, Prądnik Biały, Kraków, małopolskie","os. Wolfganga Amadeusa Mozarta, Prądnik Biały, Prądnik Biały, Kraków, małopolskie","Osiedle Wolfganga Amadeusza Mozarta, Prądnik Biały, Kraków, województwo małopolskie, Polska",50.09402065,19.95344558297756
"Widok Zarzecze, Kraków, małopolskie","Widok Zarzecze, Kraków, małopolskie","Osiedle Widok-Zarzecze, Bronowice, Kraków, województwo małopolskie, 30-138, Polska",50.0749492,19.8829351
"Mała Góra, Dzielnica XIII Podgórze, Kraków, małopolskie","Mała Góra, Dzielnica XIII Podgórze, Kraków, małopolskie","Mała Góra, Osiedle Nowy Bieżanów-Północ, Bieżanów, Bieżanów-Prokocim, Kraków, województwo małopolskie, 30-800, Polska",50.0112233,20.0238123
"Wesele, Bronowice Małe, Kraków, małopolskie","Wesele, Bronowice Małe, Kraków, małopolskie","Wesele, Bronowice, Kraków, województwo małopolskie, 30-127, Polska",50.0756816,19.8954952
"Skotnicka, Skotniki, Dębniki, Kraków, małopolskie","Skotnicka, Skotniki, Dębniki, Kraków, małopolskie","Skotnicka, Brzyzek, Skotniki, Dębniki, Kraków, województwo małopolskie, 30-396, Polska",50.0075673,19.8736362
"Lasówka, Płaszów, Kraków, małopolskie","Lasówka, Płaszów, Kraków, małopolskie","Lasówka, Płaszów, Podgórze, Kraków, województwo małopolskie, 30-723, Polska",50.0404753,20.0151209
"Kochanowskiego, Stare Miasto, Kraków, małopolskie","Kochanowskiego, Stare Miasto, Kraków, małopolskie","Jana Kochanowskiego, Piasek, Stare Miasto, Kraków, województwo małopolskie, 31-127, Polska",50.0661222,19.9279237
"Agnieszki, Kazimierz, Kraków, małopolskie","Agnieszki, Kazimierz, Kraków, małopolskie","Kościół pw. Świętej Agnieszki, 30, Józefa Dietla, Stradom, Stare Miasto, Kraków, województwo małopolskie, 31-070, Polska",50.05126435,19.93971205391791
"Elsnera, Krowodrza, Krowodrza, Kraków, małopolskie","Elsnera, Krowodrza, Krowodrza, Kraków, małopolskie","Józefa Elsnera, Osiedle Azory, Prądnik Biały, Kraków, województwo małopolskie, 31-339, Polska",50.0837493,19.909678
"Felińskiego, Prądnik Biały, Kraków, małopolskie","Felińskiego, Prądnik Biały, Kraków, małopolskie","Arcybiskupa Zygmunta Szczęsnego Felińskiego, Górka Narodowa, Prądnik Biały, Kraków, województwo małopolskie, 31-236, Polska",50.1007058,19.9670637
"Mariana Domagały 27A, Złocień, Bieżanów-Prokocim, Kraków, małopolskie","Mariana Domagały 27A, Złocień, Bieżanów-Prokocim, Kraków, małopolskie","27A, Mariana Domagały, Złocień, Bieżanów-Prokocim, Kraków, województwo małopolskie, 30-798, Polska",50.02682835,20.050490881036367
"Lea 16a, Krowodrza, Kraków, małopolskie","Lea 16a, Krowodrza, Kraków, małopolskie","16a, Juliusza Lea, Nowa Wieś, Krowodrza, Kraków, województwo małopolskie, 30-048, Polska",50.0701375,19.91922286508335
"Dzielskiego, Śródmieście, Kraków, małopolskie","Dzielskiego, Śródmieście, Kraków, małopolskie","Mirosława Dzielskiego, Ugorek, Rakowice, Prądnik Czerwony, Kraków, województwo małopolskie, 31-470, Polska",50.0828611,19.9751381
"Osiedle Złotego Wieku, Nowa Huta, Kraków, małopolskie","Osiedle Złotego Wieku, Nowa Huta, Kraków, małopolskie","Osiedle Złotego Wieku, Mistrzejowice, Kraków, województwo małopolskie, Polska",50.096467,20.002283
"Podwawelskie, Kraków, małopolskie","Podwawelskie, Kraków, małopolskie","Podwawelskie, 20, Aleja Pokoju, Dąbie, Grzegórzki, Kraków, województwo małopolskie, 31-557, Polska",50.0600472,19.9764186
"Armii Krajowej, Bronowice Małe, Kraków, małopolskie","Armii Krajowej, Bronowice Małe, Kraków, małopolskie","Armii Krajowej, Bronowice Małe, Bronowice, Kraków, województwo małopolskie, 31-342, Polska",50.0863533,19.8913868
"Miłkowskiego – 47, Ruczaj, Dębniki, Kraków, małopolskie","Miłkowskiego – 47, Ruczaj, Dębniki, Kraków, małopolskie","Zygmunta Miłkowskiego, Osiedle Ruczaj-Zaborze, Ruczaj, Dębniki, Kraków, województwo małopolskie, 30-349, Polska",50.028767,19.9181041
"Osiedle Piastów 63f, Mistrzejowice, Kraków, małopolskie","Osiedle Piastów 63f, Mistrzejowice, Kraków, małopolskie","63F, Osiedle Piastów, Mistrzejowice, Kraków, województwo małopolskie, 31-625, Polska",50.10335495,20.015844028814183
"Jesionowa, Wola Justowska, Kraków, małopolskie","Jesionowa, Wola Justowska, Kraków, małopolskie","Jesionowa, Wola Justowska, Zwierzyniec, Kraków, województwo małopolskie, 30-221, Polska",50.0696612,19.8758605
"Owsiana, Prądnik Biały, Prądnik Biały, Kraków, małopolskie","Owsiana, Prądnik Biały, Prądnik Biały, Kraków, małopolskie","Owsiana, Prądnik Biały, Kraków, województwo małopolskie, 31-332, Polska",50.0933568,19.9151093
"Brązownicza 14, Dzielnica VI Bronowice, Kraków, małopolskie","Brązownicza 14, Dzielnica VI Bronowice, Kraków, małopolskie","14, Brązownicza, Małe Błonia, Krowodrza, Kraków, województwo małopolskie, 30-142, Polska",50.0678875,19.8926929811756
"Niwy, Zabłocie, Podgórze, Kraków, małopolskie","Niwy, Zabłocie, Podgórze, Kraków, małopolskie","Niwy, Zabłocie, Podgórze, Kraków, województwo małopolskie, 30-705, Polska",50.0462125,19.9700291
"Czarnogórska, Kurdwanów, Kraków, małopolskie","Czarnogórska, Kurdwanów, Kraków, małopolskie","Czarnogórska, Wola Duchacka, Podgórze Duchackie, Kraków, województwo małopolskie, 30-638, Polska",50.0197183,19.9709187
"Piaszczysta, Tonie, Prądnik Biały, Kraków, małopolskie","Piaszczysta, Tonie, Prądnik Biały, Kraków, małopolskie","Piaszczysta, Prądnik Biały, Kraków, województwo małopolskie, Polska",50.09673045,19.92813680697165
"Piasek, Stare Miasto, Kraków, małopolskie","Piasek, Stare Miasto, Kraków, małopolskie","Piasek, Stare Miasto, Kraków, województwo małopolskie, Polska",50.0675,19.9304483
"Lubelska - 3, Krowodrza, Krowodrza, Kraków, małopolskie","Lubelska - 3, Krowodrza, Krowodrza, Kraków, małopolskie","3, Lubelska, Nowy Kleparz, Krowodrza, Kraków, województwo małopolskie, 30-003, Polska",50.0736894,19.93020821202929
"Nuszkiewicza, Kraków, małopolskie","Nuszkiewicza, Kraków, małopolskie","Majora Ryszarda Nuszkiewicza, Prądnik Czerwony, Kraków, województwo małopolskie, 31-423, Polska",50.0900018,19.9633695
"ks. Stanisława Truszkowskiego, Bronowice Małe, Bronowice, Kraków, małopolskie","ks. Stanisława Truszkowskiego, Bronowice Małe, Bronowice, Kraków, małopolskie","Księdza Stanisława Truszkowskiego, Bronowice Małe, Bronowice, Kraków, województwo małopolskie, 31-354, Polska",50.0934537,19.8733802
"Botaniczna, Stare Miasto, Kraków, małopolskie","Botaniczna, Stare Miasto, Kraków, małopolskie","Botaniczna, Wesoła, Grzegórzki, Kraków, województwo małopolskie, 31-412, Polska",50.0653566,19.9546439
"Stradomska, Stare Miasto, Kraków, małopolskie","Stradomska, Stare Miasto, Kraków, małopolskie","Stradomska, Stradom, Stare Miasto, Kraków, województwo małopolskie, 31-068, Polska",50.0532899,19.9400011
"Głowackiego, Bronowice Małe Wschód, Kraków, małopolskie","Głowackiego, Bronowice Małe Wschód, Kraków, małopolskie","Bartosza Głowackiego, Bronowice, Kraków, województwo małopolskie, 30-084, Polska",50.0775737,19.9042255
"Osiedle Piastów, Nowa Huta, Kraków, małopolskie","Osiedle Piastów, Nowa Huta, Kraków, małopolskie","Osiedle Piastów, Mistrzejowice, Kraków, województwo małopolskie, Polska",50.1003776,20.02101742976312
"Teligi, Dzielnica XII Bieżanów-Prokocim, Kraków, małopolskie","Teligi, Dzielnica XII Bieżanów-Prokocim, Kraków, małopolskie","Teligi, Leonida Teligi, Nowy Prokocim, Prokocim, Bieżanów-Prokocim, Kraków, województwo małopolskie, 30-870, Polska",50.0165955,20.006901179746457
"Janowa Wola, Podgórze, Kraków, małopolskie","Janowa Wola, Podgórze, Kraków, małopolskie","Janowa Wola, Stare Podgórze, Podgórze, Kraków, województwo małopolskie, 30-550, Polska",50.0465885,19.9566517
"Dunajewskiego, Piasek, Kraków, małopolskie","Dunajewskiego, Piasek, Kraków, małopolskie","Juliana Dunajewskiego, Piasek, Stare Miasto, Kraków, województwo małopolskie, 31-133, Polska",50.0637679,19.9333618
"al. Kijowska, Nowa Wieś, Krowodrza, Kraków, małopolskie","al. Kijowska, Nowa Wieś, Krowodrza, Kraków, małopolskie","Aleja Kijowska, Łobzów, Krowodrza, Kraków, województwo małopolskie, 30-023, Polska",50.0766089,19.917387
"Wlotowa, Podgórze Duchackie, Kraków, małopolskie","Wlotowa, Podgórze Duchackie, Kraków, małopolskie","Wlotowa, Kozłówka, Bieżanów-Prokocim, Kraków, województwo małopolskie, 30-668, Polska",50.0194862,19.9867585
"Bosacka, Śródmieście, Kraków, małopolskie","Bosacka, Śródmieście, Kraków, małopolskie","Bosacka, Wesoła, Stare Miasto, Kraków, województwo małopolskie, 31-504, Polska",50.0665498,19.9494979
"os. Krowodrza Górka, Czarna Wieś, Krowodrza, Kraków, małopolskie","os. Krowodrza Górka, Czarna Wieś, Krowodrza, Kraków, małopolskie","Krowodrza Górka, Prądnik Biały, Kraków, województwo małopolskie, Polska",50.0887692,19.9299753
"Ludowa, Stare Podgórze, Podgórze, Kraków, małopolskie","Ludowa, Stare Podgórze, Podgórze, Kraków, małopolskie","Ludowa, Stare Podgórze, Podgórze, Kraków, województwo małopolskie, 30-554, Polska",50.038408,19.9646505
"Koszykarska, Podgórze, Kraków, małopolskie","Koszykarska, Podgórze, Kraków, małopolskie","Koszykarska, Ogrody Płaszów, Płaszów, Podgórze, Kraków, województwo małopolskie, 30-728, Polska",50.0523838,19.989574
"Zieleniewskiego, Grzegórzki, Kraków, małopolskie","Zieleniewskiego, Grzegórzki, Kraków, małopolskie","Ludwika Zieleniewskiego, Grzegórzki, Kraków, województwo małopolskie, 31-548, Polska",50.0564914,19.9644161
"Odlewnicza, Wola Justowska, Kraków, małopolskie","Odlewnicza, Wola Justowska, Kraków, małopolskie","Odlewnicza, Małe Błonia, Krowodrza, Kraków, województwo małopolskie, 30-133, Polska",50.0703952,19.8996828
"Nadwiślańska, Stare Podgórze, Kraków, małopolskie","Nadwiślańska, Stare Podgórze, Kraków, małopolskie","Nadwiślańska, Stare Podgórze, Podgórze, Kraków, województwo małopolskie, 30-527, Polska",50.0475831,19.9532146
"Osiedle Krakowiaków, Krakowiaków, Kraków, małopolskie","Osiedle Krakowiaków, Krakowiaków, Kraków, małopolskie","Osiedle Krakowiaków, Nowa Huta, Kraków, województwo małopolskie, Polska",50.0829927,20.0378038
"Ciesielskiego -, Czyżyny, Czyżyny, Kraków, małopolskie","Ciesielskiego -, Czyżyny, Czyżyny, Kraków, małopolskie","Romana Ciesielskiego, Zawsie, Łęg, Czyżyny, Kraków, województwo małopolskie, 31-587, Polska",50.0607947,20.0152019
"Łobzów, Krowodrza, Kraków, małopolskie","Łobzów, Krowodrza, Kraków, małopolskie","Łobzów, Krowodrza, Kraków, województwo małopolskie, Polska",50.07527,19.9077779
"Seweryna, Podgórze, Kraków, małopolskie","Seweryna, Podgórze, Kraków, małopolskie","Seweryna Goszczyńskiego, Rogatka, Płaszów, Podgórze, Kraków, województwo małopolskie, 30-724, Polska",50.0377005,19.9910359
"Domagały, Dzielnica XIII Podgórze, Kraków, małopolskie","Domagały, Dzielnica XIII Podgórze, Kraków, małopolskie","Mariana Domagały, Tadeusza Śliwiaka, Przewóz, Podgórze, Kraków, województwo małopolskie, 30-797, Polska",50.0367193,20.0523695
"Paulińska, Kazimierz, Kraków, małopolskie","Paulińska, Kazimierz, Kraków, małopolskie","Paulińska, Kazimierz, Stare Miasto, Kraków, województwo małopolskie, 31-071, Polska",50.0491262,19.9381001
"Meissnera, Olsza, Kraków, małopolskie","Meissnera, Olsza, Kraków, małopolskie","Janusza Meissnera, Ugorek, Rakowice, Prądnik Czerwony, Kraków, województwo małopolskie, 31-465, Polska",50.0796912,19.9749499
"Kazimierz, Kraków, małopolskie","Kazimierz, Kraków, małopolskie","Kazimierz, Stare Miasto, Kraków, województwo małopolskie, Polska",50.051855,19.9449466
"Osiedle Tysiąclecia, Mistrzejowice, Kraków, małopolskie","Osiedle Tysiąclecia, Mistrzejowice, Kraków, małopolskie","Osiedle Tysiąclecia, Mistrzejowice, Kraków, województwo małopolskie, Polska",50.0917147,20.0012344
"Szafrana, Kraków, małopolskie","Szafrana, Kraków, małopolskie","Tadeusza Szafrana, Stare Podgórze, Podgórze, Kraków, województwo małopolskie, 30-636, Polska",50.0345918,19.93293
"Chmieleniec, Borek Fałęcki, Łagiewniki-Borek Fałęcki, Kraków, małopolskie","Chmieleniec, Borek Fałęcki, Łagiewniki-Borek Fałęcki, Kraków, małopolskie","Chmieleniec, Osiedle Szuwarowa, Ruczaj, Dębniki, Kraków, województwo małopolskie, 30-382, Polska",50.0190472,19.9006675
"Gołaśka, Wola Duchacka, Podgórze Duchackie, Kraków, małopolskie","Gołaśka, Wola Duchacka, Podgórze Duchackie, Kraków, małopolskie","Gołaśka, Wola Duchacka, Podgórze Duchackie, Kraków, województwo małopolskie, 30-657, Polska",50.0136841,19.9611512
"Osiedle Piastów, Mistrzejowice, Mistrzejowice, Kraków, małopolskie","Osiedle Piastów, Mistrzejowice, Mistrzejowice, Kraków, małopolskie","Osiedle Piastów, Mistrzejowice, Kraków, województwo małopolskie, Polska",50.1003776,20.02101742976312
"Wesoła Wschód, Grzegórzki, Kraków, małopolskie","Wesoła Wschód, Grzegórzki, Kraków, małopolskie","Wesoła, Grzegórzki, Kraków, województwo małopolskie, Polska",50.0639349,19.95114
"Prądnicka, Prądnik Biały, Kraków, małopolskie","Prądnicka, Prądnik Biały, Kraków, małopolskie","Prądnicka, Żabiniec, Prądnik Biały, Kraków, województwo małopolskie, 31-201, Polska",50.082742,19.9377109
"Chełmońskiego, Kraków, małopolskie","Chełmońskiego, Kraków, małopolskie","Józefa Chełmońskiego, Azory, Prądnik Biały, Kraków, województwo małopolskie, 31-306, Polska",50.0853627,19.9166436
"Tarłowska, Stare Miasto, Kraków, małopolskie","Tarłowska, Stare Miasto, Kraków, małopolskie","Tarłowska, Nowy Świat, Stare Miasto, Kraków, województwo małopolskie, 31-102, Polska",50.0571481,19.9316262
"Aleja gen. Jana Skrzyneckiego, Stare Podgórze, Podgórze, Kraków, małopolskie","Aleja gen. Jana Skrzyneckiego, Stare Podgórze, Podgórze, Kraków, małopolskie","Aleja generała Jana Skrzyneckiego, Stare Podgórze, Podgórze, Kraków, województwo małopolskie, 30-636, Polska",50.0350543,19.9349549
"Kobierzyn, Dębniki, Kraków, małopolskie","Kobierzyn, Dębniki, Kraków, małopolskie","Kobierzyn, Dębniki, Kraków, województwo małopolskie, Polska",50.0085013,19.8919269
"Osiedle Hutnicze, Nowa Huta, Kraków, małopolskie","Osiedle Hutnicze, Nowa Huta, Kraków, małopolskie","Osiedle Hutnicze, Nowa Huta, Kraków, województwo małopolskie, Polska",50.0727517,20.0454692
"Zachodnia, Ruczaj, Dębniki, Kraków, małopolskie","Zachodnia, Ruczaj, Dębniki, Kraków, małopolskie","Zachodnia, Zaborze, Ruczaj, Dębniki, Kraków, województwo małopolskie, 30-350, Polska",50.0239313,19.9096528
"Podkowińskiego, Bronowice Nowe, Kraków, małopolskie","Podkowińskiego, Bronowice Nowe, Kraków, małopolskie","Władysława Podkowińskiego, Azory, Prądnik Biały, Kraków, województwo małopolskie, 31-321, Polska",50.0849586,19.8949096
"Republiki Korczakowskiej, Bieżanów-Prokocim, Kraków, małopolskie","Republiki Korczakowskiej, Bieżanów-Prokocim, Kraków, małopolskie","Republiki Korczakowskiej, Nowy Prokocim, Prokocim, Bieżanów-Prokocim, Kraków, województwo małopolskie, 30-809, Polska",50.0163919,20.0008638
"Biskupa Albina Małysiaka, Kobierzyn, Dębniki, Kraków, małopolskie","Biskupa Albina Małysiaka, Kobierzyn, Dębniki, Kraków, małopolskie","Biskupa Albina Małysiaka, Kobierzyn, Dębniki, Kraków, województwo małopolskie, 30-389, Polska",49.9987185,19.8938794
"Aleja gen. Władysława Andersa, Nowa Huta, Kraków, małopolskie","Aleja gen. Władysława Andersa, Nowa Huta, Kraków, małopolskie","Aleja generała Władysława Andersa, Nowa Huta, Kraków, województwo małopolskie, 31-936, Polska",50.0749678,20.0336472
"Aleja Juliusza Słowackiego, Kraków, małopolskie","Aleja Juliusza Słowackiego, Kraków, małopolskie","Aleja Juliusza Słowackiego, Nowy Kleparz, Krowodrza, Kraków, województwo małopolskie, 31-148, Polska",50.0736751,19.937842
"Michała Bałuckiego, Dębniki, Dębniki, Kraków, małopolskie","Michała Bałuckiego, Dębniki, Dębniki, Kraków, małopolskie","Michała Bałuckiego, Dębniki, Kraków, województwo małopolskie, 30-318, Polska",50.0500806,19.9261304
"Przemysłowa, Zabłocie, Kraków, małopolskie","Przemysłowa, Zabłocie, Kraków, małopolskie","Przemysłowa, Zabłocie, Podgórze, Kraków, województwo małopolskie, 30-549, Polska",50.0474394,19.9595782
"Oboźna - Łobzów! NOWE, Krowodrza, Krowodrza, Kraków, małopolskie","Oboźna - Łobzów! NOWE, Krowodrza, Krowodrza, Kraków, małopolskie","Oboźna, Nowy Kleparz, Krowodrza, Kraków, województwo małopolskie, 30-010, Polska",50.0797998,19.9287252
"Złocieniowa, Złocień, Bieżanów-Prokocim, Kraków, małopolskie","Złocieniowa, Złocień, Bieżanów-Prokocim, Kraków, małopolskie","Złocieniowa, Złocień, Bieżanów-Prokocim, Kraków, województwo małopolskie, 30-898, Polska",50.0182912,20.0526814
"Piltza- (2023, Kobierzyn, Dębniki, Kraków, małopolskie","Piltza- (2023, Kobierzyn, Dębniki, Kraków, małopolskie","Doktora Jana Piltza, Kobierzyn, Dębniki, Kraków, województwo małopolskie, 30-388, Polska",50.0089455,19.8894521
"św. Teresy, Piasek, Stare Miasto, Kraków, małopolskie","św. Teresy, Piasek, Stare Miasto, Kraków, małopolskie","Świętej Teresy, Piasek, Stare Miasto, Kraków, województwo małopolskie, 31-162, Polska",50.0711376,19.9321757
"Koszykarska – 61, Płaszów, Podgórze, Kraków, małopolskie","Koszykarska – 61, Płaszów, Podgórze, Kraków, małopolskie","Koszykarska, Ogrody Płaszów, Płaszów, Podgórze, Kraków, województwo małopolskie, 30-728, Polska",50.0523838,19.989574
"Kordeckiego, Kazimierz, Kraków, małopolskie","Kordeckiego, Kazimierz, Kraków, małopolskie","Augustyna Kordeckiego, Kazimierz, Stare Miasto, Kraków, województwo małopolskie, 31-071, Polska",50.0496422,19.9376168
"Myśliwska 61, Płaszów, Podgórze, Kraków, małopolskie","Myśliwska 61, Płaszów, Podgórze, Kraków, małopolskie","61, Myśliwska, Płaszów, Podgórze, Kraków, województwo małopolskie, 30-718, Polska",50.04361325,19.998974157806096
"Samuela Lindego, Mydlniki, Bronowice, Kraków, małopolskie","Samuela Lindego, Mydlniki, Bronowice, Kraków, małopolskie","Samuela Bogumiła Lindego, Mydlniki, Bronowice, Kraków, województwo małopolskie, 30-148, Polska",50.0783308,19.8704244
"Przybyszewskiego, Krowodrza, Kraków, małopolskie","Przybyszewskiego, Krowodrza, Kraków, małopolskie","U Przybyszewskiego etap III, Małe Błonia, Krowodrza, Kraków, województwo małopolskie, Polska",50.06856285,19.89312566859228
"nowa huta, Bieńczyce, Bieńczyce, Kraków, małopolskie","nowa huta, Bieńczyce, Bieńczyce, Kraków, małopolskie","Parafia p.w. Świętego Brata Alberta Chmielowskiego w Krakowie (Nowa Huta), Bieńczyce, Kraków, województwo małopolskie, Polska",50.0816349,20.016490706002102
"Słoneckiego, Prądnik Czerwony, Kraków, małopolskie","Słoneckiego, Prądnik Czerwony, Kraków, małopolskie","Mariana Słoneckiego, Prądnik Czerwony, Kraków, województwo małopolskie, 31-421, Polska",50.0903338,19.9757761
"płk. Francesco Nullo, Grzegórzki, Grzegórzki, Kraków, małopolskie","płk. Francesco Nullo, Grzegórzki, Grzegórzki, Kraków, małopolskie","Pułkownika Francesco Nullo, Grzegórzki, Kraków, województwo małopolskie, 31-526, Polska",50.0664138,19.965265
"Staffa 5, ul. Lea, al. Kijowska, ul. Galla, ul. Podchorążych, Łobzów, Krowodrza, Kraków, małopolskie","Staffa 5, ul. Lea, al. Kijowska, ul. Galla, ul. Podchorążych, Łobzów, Krowodrza, Kraków, małopolskie","5, Leopolda Staffa, Łobzów, Krowodrza, Kraków, województwo małopolskie, 30-069, Polska",50.07310015,19.912381285758265
"Aleja Jana Pawła II, Rakowice, Prądnik Czerwony, Kraków, małopolskie","Aleja Jana Pawła II, Rakowice, Prądnik Czerwony, Kraków, małopolskie","Aleja Jana Pawła II, Ugorek, Rakowice, Prądnik Czerwony, Kraków, województwo małopolskie, 31-446, Polska",50.0729408,19.9852689
"Dębowa| 5, Przewóz, Podgórze, Kraków, małopolskie","Dębowa| 5, Przewóz, Podgórze, Kraków, małopolskie","Wrobela Residence, Podgórze, Kraków, województwo małopolskie, Polska",50.039419,20.062108
"Małysiaka, Ruczaj, Kraków, małopolskie","Małysiaka, Ruczaj, Kraków, małopolskie","Biskupa Albina Małysiaka, Kobierzyn, Dębniki, Kraków, województwo małopolskie, 30-389, Polska",49.9987185,19.8938794
"Parkowa, Stare Podgórze, Kraków, małopolskie","Parkowa, Stare Podgórze, Kraków, małopolskie","Parkowa, Stare Podgórze, Podgórze, Kraków, województwo małopolskie, 30-538, Polska",50.0402771,19.9535008
"Rakowicka 20c,, Przedmieście Warszawskie, Stare Miasto, Kraków, małopolskie","Rakowicka 20c,, Przedmieście Warszawskie, Stare Miasto, Kraków, małopolskie","20c, Rakowicka, Osiedle Oficerskie, Grzegórzki, Kraków, województwo małopolskie, 31-510, Polska",50.07004995,19.95140419270668
"Długosza, Podgórze, Kraków, małopolskie","Długosza, Podgórze, Kraków, małopolskie","Jana Długosza, Stare Podgórze, Podgórze, Kraków, województwo małopolskie, 30-512, Polska",50.0427342,19.942172
"Rzeszowska, Kazimierz, Stare Miasto, Kraków, małopolskie","Rzeszowska, Kazimierz, Stare Miasto, Kraków, małopolskie","Rzeszowska, Kazimierz, Stare Miasto, Kraków, województwo małopolskie, 31-035, Polska",50.0526458,19.9496125
"Rejtana 4, Stare Podgórze, Kraków, małopolskie","Rejtana 4, Stare Podgórze, Kraków, małopolskie","4, Tadeusza Rejtana, Stare Podgórze, Podgórze, Kraków, województwo małopolskie, 30-510, Polska",50.0439341,19.9457372
"Złocieniowa, Złocień, Kraków, małopolskie","Złocieniowa, Złocień, Kraków, małopolskie","Złocieniowa, Złocień, Bieżanów-Prokocim, Kraków, województwo małopolskie, 30-898, Polska",50.0182912,20.0526814
"Borowego, Wola Justowska, Kraków, małopolskie","Borowego, Wola Justowska, Kraków, małopolskie","Piotra Borowego, Zwierzyniec, Kraków, województwo małopolskie, 30-214, Polska",50.0644927,19.890371
"Przy Moście, Stare Podgórze, Podgórze, Kraków, małopolskie","Przy Moście, Stare Podgórze, Podgórze, Kraków, małopolskie","Przy Moście, Stare Podgórze, Podgórze, Kraków, województwo małopolskie, 30-508, Polska",50.0448433,19.9456334
"Lipskiej, Płaszów, Podgórze, Kraków, małopolskie","Lipskiej, Płaszów, Podgórze, Kraków, małopolskie","Lipska, Rogatka, Płaszów, Podgórze, Kraków, województwo małopolskie, 30-725, Polska",50.0405669,19.99269
"Strzelecka, Wesoła Wschód, Grzegórzki, Kraków, małopolskie","Strzelecka, Wesoła Wschód, Grzegórzki, Kraków, małopolskie","Strzelecka, Wesoła II, Grzegórzki, Kraków, województwo małopolskie, 31-504, Polska",50.0649288,19.9499493
"Zielone, Kraków, małopolskie","Zielone, Kraków, małopolskie","Osiedle Zielone, Nowa Huta, Kraków, województwo małopolskie, Polska",50.0795971,20.0426044
"Zalesie, Łagiewniki, Kraków, małopolskie","Zalesie, Łagiewniki, Kraków, małopolskie","Zalesie, Wróblowice, Swoszowice, Kraków, województwo małopolskie, 30-698, Polska",49.985,19.9441667
"Koletek, Stradom, Stare Miasto, Kraków, małopolskie","Koletek, Stradom, Stare Miasto, Kraków, małopolskie","Koletek, Stradom, Stare Miasto, Kraków, województwo małopolskie, 31-069, Polska",50.052117,19.9383519
"Smętna, Dzielnica VI Bronowice, Kraków, małopolskie","Smętna, Dzielnica VI Bronowice, Kraków, małopolskie","Smętna, Bronowice Wielkie, Prądnik Biały, Kraków, województwo małopolskie, 31-343, Polska",50.0904629,19.8845016
"rynek Podgórski, Stare Podgórze, Podgórze, Kraków, małopolskie","rynek Podgórski, Stare Podgórze, Podgórze, Kraków, małopolskie","Rynek Podgórski, Stare Podgórze, Podgórze, Kraków, województwo małopolskie, 30-518, Polska",50.0442195,19.94920626190116
"pl. Juliusza Kossaka 5, Nowy Świat, Stare Miasto, Kraków, małopolskie","pl. Juliusza Kossaka 5, Nowy Świat, Stare Miasto, Kraków, małopolskie","5, Plac Juliusza Kossaka, Nowy Świat, Stare Miasto, Kraków, województwo małopolskie, 31-106, Polska",50.0568196,19.92802
"Sas-Zubrzyckiego, Wola Duchacka, Kraków, małopolskie","Sas-Zubrzyckiego, Wola Duchacka, Kraków, małopolskie","Jana Sas-Zubrzyckiego, Wola Duchacka, Podgórze Duchackie, Kraków, województwo małopolskie, 30-623, Polska",50.0191677,19.9488458
"Piltza, Dębniki, Kraków, małopolskie","Piltza, Dębniki, Kraków, małopolskie","Doktora Jana Piltza, Kobierzyn, Dębniki, Kraków, województwo małopolskie, 30-393, Polska",50.0076191,19.8888826
"Władysława Taklińskiego, Opatkowice, Swoszowice, Kraków, małopolskie","Władysława Taklińskiego, Opatkowice, Swoszowice, Kraków, małopolskie","Władysława Taklińskiego, Gaik, Opatkowice, Swoszowice, Kraków, województwo małopolskie, 30-499, Polska",49.9874978,19.9140804
"Floriańska, Wawel, Kraków, małopolskie","Floriańska, Wawel, Kraków, małopolskie","Floriańska, Stare Miasto, Kraków, województwo małopolskie, 31-019, Polska",50.0649001,19.9413698
"Sanocka, Wola Duchacka, Podgórze Duchackie, Kraków, małopolskie","Sanocka, Wola Duchacka, Podgórze Duchackie, Kraków, małopolskie","Sanocka, Wola Duchacka, Podgórze Duchackie, Kraków, województwo małopolskie, 30-622, Polska",50.0173255,19.9535859
"Garncarska, Gancarska, Stare Miasto, Kraków, małopolskie","Garncarska, Gancarska, Stare Miasto, Kraków, małopolskie","Garncarska, Piasek, Stare Miasto, Kraków, województwo małopolskie, 31-115, Polska",50.0626415,19.9277117
"Słomiana, Ludwinów, Dębniki, Kraków, małopolskie","Słomiana, Ludwinów, Dębniki, Kraków, małopolskie","Słomiana, Osiedle Podwawelskie, Ludwinów, Dębniki, Kraków, województwo małopolskie, 30-361, Polska",50.0415133,19.9260556
"Brzeska, Nowa Huta, Kraków, małopolskie","Brzeska, Nowa Huta, Kraków, małopolskie","Brzeska, Wolica, Nowa Huta, Kraków, województwo małopolskie, 31-998, Polska",50.0640568,20.1928806
"Kochanowskiego, Piasek, Stare Miasto, Kraków, małopolskie","Kochanowskiego, Piasek, Stare Miasto, Kraków, małopolskie","Jana Kochanowskiego, Piasek, Stare Miasto, Kraków, województwo małopolskie, 31-127, Polska",50.0661222,19.9279237
"Wielicka, Dzielnica XII Bieżanów-Prokocim, Kraków, małopolskie","Wielicka, Dzielnica XII Bieżanów-Prokocim, Kraków, małopolskie","Wielicka, Szutry, Prokocim, Bieżanów-Prokocim, Kraków, województwo małopolskie, 30-804, Polska",50.0240909,19.9794646
"Czerwone Maki 45a, Ruczaj, Kraków, małopolskie","Czerwone Maki 45a, Ruczaj, Kraków, małopolskie","45A, Czerwone Maki, Ruczaj, Dębniki, Kraków, województwo małopolskie, 30-392, Polska",50.0144068,19.88715226263298
"Powstańców, Mistrzejowice, Kraków, małopolskie","Powstańców, Mistrzejowice, Kraków, małopolskie","Powstańców, Mistrzejowice, Kraków, województwo małopolskie, 31-625, Polska",50.10664,20.0120368
"Las Wolski, Zwierzyniec, Kraków, małopolskie","Las Wolski, Zwierzyniec, Kraków, małopolskie","Las Wolski, Zwierzyniec, Kraków, województwo małopolskie, 30-232, Polska",50.0540528,19.8498916
"Altanowa, Bronowice, Bronowice, Kraków, małopolskie","Altanowa, Bronowice, Bronowice, Kraków, małopolskie","Altanowa, Bronowice, Kraków, województwo małopolskie, 30-124, Polska",50.0738811,19.9029228
"Miłkowskiego, Dębniki, Kraków, małopolskie","Miłkowskiego, Dębniki, Kraków, małopolskie","Zygmunta Miłkowskiego, Osiedle Ruczaj-Zaborze, Ruczaj, Łagiewniki-Borek Fałęcki, Dębniki, Kraków, województwo małopolskie, 30-349, Polska",50.0274537,19.9202904
"Rydlówka, Dzielnica XIII Podgórze, Kraków, małopolskie","Rydlówka, Dzielnica XIII Podgórze, Kraków, małopolskie","Rydlówka, Stare Podgórze, Podgórze, Kraków, województwo małopolskie, 30-636, Polska",50.0352782,19.9349524
"Topolowa, Śródmieście, Kraków, małopolskie","Topolowa, Śródmieście, Kraków, małopolskie","Topolowa, Wesoła II, Grzegórzki, Kraków, województwo małopolskie, 31-506, Polska",50.0666513,19.95419
"Grenadierów, Bronowice, Kraków, małopolskie","Grenadierów, Bronowice, Kraków, małopolskie","Grenadierów, Bronowice, Kraków, województwo małopolskie, 30-085, Polska",50.0779099,19.9064117
"Dębowa, Dębniki, Dębniki, Kraków, małopolskie","Dębowa, Dębniki, Dębniki, Kraków, małopolskie","Dębowa, Dębniki, Kraków, województwo małopolskie, 30-315, Polska",50.0470963,19.9248842
"Aleja 29 Listopada 39f, Stare Miasto, Kraków, małopolskie","Aleja 29 Listopada 39f, Stare Miasto, Kraków, małopolskie","Aleja 29 Listopada, Przedmieście Warszawskie, Stare Miasto, Kraków, województwo małopolskie, 31-401, Polska",50.0750648,19.9467425
"Azory, Azory, Prądnik Biały, Kraków, małopolskie","Azory, Azory, Prądnik Biały, Kraków, małopolskie","Azory, Wojciecha Weissa, Azory, Prądnik Biały, Kraków, województwo małopolskie, 31-339, Polska",50.0870919,19.909095
"Balickiej, Mydlniki, Bronowice, Kraków, małopolskie","Balickiej, Mydlniki, Bronowice, Kraków, małopolskie","Balicka, Mydlniki, Bronowice, Kraków, województwo małopolskie, 30-198, Polska",50.0844887,19.8450822
"Mostowa, Śródmieście, Kraków, małopolskie","Mostowa, Śródmieście, Kraków, małopolskie","Mostowa, Kazimierz, Stare Miasto, Kraków, województwo małopolskie, 31-061, Polska",50.0483859,19.9449383
"Młodzieży, Bieżanów, Bieżanów-Prokocim, Kraków, małopolskie","Młodzieży, Bieżanów, Bieżanów-Prokocim, Kraków, małopolskie","Młodzieży, Jemiołki, Prokocim, Bieżanów-Prokocim, Kraków, województwo małopolskie, 30-829, Polska",50.0233181,20.0044543
"Reduta 36, Prądnik Czerwony, Prądnik Czerwony, Kraków, małopolskie","Reduta 36, Prądnik Czerwony, Prądnik Czerwony, Kraków, małopolskie","36, Reduta, Prądnik Czerwony, Kraków, województwo małopolskie, 31-421, Polska",50.0947338,19.983766667798594
"Skawińska, Kazimierz, Kraków, małopolskie","Skawińska, Kazimierz, Kraków, małopolskie","Skawińska, Kazimierz, Stare Miasto, Kraków, województwo małopolskie, 31-066, Polska",50.0476629,19.9428535
"Księcia Józefa, Przegorzały, Zwierzyniec, Kraków, małopolskie","Księcia Józefa, Przegorzały, Zwierzyniec, Kraków, małopolskie","Księcia Józefa, Przegorzały, Zwierzyniec, Kraków, województwo małopolskie, 30-254, Polska",50.0469544,19.8830182
"Kawiory, Łobzów, Kraków, małopolskie","Kawiory, Łobzów, Kraków, małopolskie","Kawiory, Cichy Kącik, Czarna Wieś, Krowodrza, Kraków, województwo małopolskie, 30-056, Polska",50.0690051,19.9097983
"Reja, Żabiniec, Kraków, małopolskie","Reja, Żabiniec, Kraków, małopolskie","Mikołaja Reja, Osiedle Żabiniec, Prądnik Biały, Kraków, województwo małopolskie, 31-215, Polska",50.086051,19.9433075
"Maciejkowa, Prądnik Biały, Kraków, małopolskie","Maciejkowa, Prądnik Biały, Kraków, małopolskie","Maciejkowa, Budzyń, Tonie, Prądnik Biały, Kraków, województwo małopolskie, 31-336, Polska",50.107243,19.8960084
"Stojałowskiego, Podgórze Duchackie, Kraków, małopolskie","Stojałowskiego, Podgórze Duchackie, Kraków, małopolskie","Stanisława Stojałowskiego, Osiedle ""Kurdwanów Nowy"", Kurdwanów, Podgórze Duchackie, Kraków, województwo małopolskie, 30-613, Polska",50.0057555,19.947606
"Wojciecha Stattlera, Kozłówka, Bieżanów-Prokocim, Kraków, małopolskie","Wojciecha Stattlera, Kozłówka, Bieżanów-Prokocim, Kraków, małopolskie","Wojciecha Stattlera, Kozłówka, Bieżanów-Prokocim, Kraków, województwo małopolskie, 30-666, Polska",50.0196019,19.9836947
"Architektów, Wzgórza Krzesławickie, Kraków, małopolskie","Architektów, Wzgórza Krzesławickie, Kraków, małopolskie","Architektów, Wzgórza Krzesławickie, Kraków, województwo małopolskie, 31-722, Polska",50.0961221,20.0630892
"Bociana, Prądnik Biały, Prądnik Biały, Kraków, małopolskie","Bociana, Prądnik Biały, Prądnik Biały, Kraków, małopolskie","Bociana, Prądnik Biały, Kraków, województwo małopolskie, 31-232, Polska",50.0928723,19.9562624
"Studencka 29, Stare Miasto, Kraków, małopolskie","Studencka 29, Stare Miasto, Kraków, małopolskie","29, Studencka, Piasek, Stare Miasto, Kraków, województwo małopolskie, 31-116, Polska",50.0624615,19.927989001376936
"Ładna, Grzegórzki, Kraków, małopolskie","Ładna, Grzegórzki, Kraków, małopolskie","Ładna, Rakowice, Prądnik Czerwony, Kraków, województwo małopolskie, 31-444, Polska",50.0715246,19.9780798
"Reduta, Mistrzejowice, Kraków, małopolskie","Reduta, Mistrzejowice, Kraków, małopolskie","Reduta, Mistrzejowice, Kraków, województwo małopolskie, 31-479, Polska",50.0945167,19.9877141
"Bobrzyńskiego Os. Europejskie, Ruczaj, Dębniki, Kraków, małopolskie","Bobrzyńskiego Os. Europejskie, Ruczaj, Dębniki, Kraków, małopolskie","Kraków ul. Bobrzyńskiego 43B, Lubostroń, Osiedle Szuwarowa, Osiedle Europejskie, Dębniki, Kraków, województwo małopolskie, 30-392, Polska",50.01579115,19.89123893949737
"Lema, Grzegórzki, Kraków, małopolskie","Lema, Grzegórzki, Kraków, małopolskie","Ogród Doświadczeń im. Stanisława Lema, Czyżyny, Kraków, województwo małopolskie, Polska",50.06819475,19.99729633976735
"Osiedle Górali, Górali, Kraków, małopolskie","Osiedle Górali, Górali, Kraków, małopolskie","Osiedle Górali, Nowa Huta, Kraków, województwo małopolskie, Polska",50.0808003,20.0379026
"Osiedle Kombatantów, Mistrzejowice, Mistrzejowice, Kraków, małopolskie","Osiedle Kombatantów, Mistrzejowice, Mistrzejowice, Kraków, małopolskie","Osiedle Kombatantów, Mistrzejowice, Kraków, województwo małopolskie, 31-630, Polska",50.0925382,20.008974688139368
"Kazimierza Wielkiego, Nowa Wieś, Krowodrza, Kraków, małopolskie","Kazimierza Wielkiego, Nowa Wieś, Krowodrza, Kraków, małopolskie","Kazimierza Wielkiego, Nowa Wieś, Krowodrza, Kraków, województwo małopolskie, 30-074, Polska",50.0730499,19.9201579
"Prądnik Czerwony, Kraków, małopolskie","Prądnik Czerwony, Kraków, małopolskie","Prądnik Czerwony, Kraków, województwo małopolskie, Polska",50.0859347,19.966597489905432
"Rezedowa, Prądnik Czerwony, Prądnik Czerwony, Kraków, małopolskie","Rezedowa, Prądnik Czerwony, Prądnik Czerwony, Kraków, małopolskie","Rezedowa, Prądnik Czerwony, Kraków, województwo małopolskie, 31-409, Polska",50.0867204,19.9614121
"os. Podwawelskie, Ludwinów, Dębniki, Kraków, małopolskie","os. Podwawelskie, Ludwinów, Dębniki, Kraków, małopolskie","Os. Podwawelskie, Barska, Osiedle Podwawelskie, Ludwinów, Dębniki, Kraków, województwo małopolskie, 31-051, Polska",50.045581,19.9327763
"os. Kombatantów 6, Mistrzejowice, Mistrzejowice, Kraków, małopolskie","os. Kombatantów 6, Mistrzejowice, Mistrzejowice, Kraków, małopolskie","6, Osiedle Kombatantów, Mistrzejowice, Kraków, województwo małopolskie, 31-630, Polska",50.0931616,20.011344363638614
"Brązownicza 14, Bronowice Wielkie, Kraków, małopolskie","Brązownicza 14, Bronowice Wielkie, Kraków, małopolskie","14, Brązownicza, Małe Błonia, Krowodrza, Kraków, województwo małopolskie, 30-142, Polska",50.0678875,19.8926929811756
"Rajska, Stare Miasto, Kraków, małopolskie","Rajska, Stare Miasto, Kraków, małopolskie","Rajska, Piasek, Stare Miasto, Kraków, województwo małopolskie, 31-124, Polska",50.0646766,19.928989
"Władysława Łokietka, Tonie, Prądnik Biały, Kraków, małopolskie","Władysława Łokietka, Tonie, Prądnik Biały, Kraków, małopolskie","Władysława Łokietka, Budzyń, Tonie, Prądnik Biały, Kraków, województwo małopolskie, 31-337, Polska",50.1174064,19.8933515
"Ok. Teligii, Dzielnica XII Bieżanów-Prokocim, Kraków, małopolskie","Ok. Teligii, Dzielnica XII Bieżanów-Prokocim, Kraków, małopolskie","Teligi, Leonida Teligi, Nowy Prokocim, Prokocim, Bieżanów-Prokocim, Kraków, województwo małopolskie, 30-870, Polska",50.0165955,20.006901179746457
"Rzepichy, Zwierzyniec, Kraków, małopolskie","Rzepichy, Zwierzyniec, Kraków, małopolskie","Rzepichy, Zakamycze, Zwierzyniec, Kraków, województwo małopolskie, 30-240, Polska",50.062516,19.8348066
"Kołłątaja / ul. Bujwida, Stare Miasto, Stare Miasto, Kraków, małopolskie","Kołłątaja / ul. Bujwida, Stare Miasto, Stare Miasto, Kraków, małopolskie","Odona Bujwida, Wesoła II, Grzegórzki, Kraków, województwo małopolskie, 31-529, Polska",50.060879,19.9502566
"Profesora Michała Bobrzyńskiego, Ruczaj, Dębniki, Kraków, małopolskie","Profesora Michała Bobrzyńskiego, Ruczaj, Dębniki, Kraków, małopolskie","Profesora Michała Bobrzyńskiego, Ruczaj, Dębniki, Kraków, województwo małopolskie, 30-392, Polska",50.0177969,19.8915813
"Na Zakolu Wisły, Podgórze, Kraków, małopolskie","Na Zakolu Wisły, Podgórze, Kraków, małopolskie","Na zakolu wisły, Podgórze, Kraków, województwo małopolskie, Polska",50.05356775,19.98429598154049
"Nadwiślańska 11, Stare Podgórze, Kraków, małopolskie","Nadwiślańska 11, Stare Podgórze, Kraków, małopolskie","Good Lood, 11, Nadwiślańska, Stare Podgórze, Podgórze, Kraków, województwo małopolskie, 33-332, Polska",50.0468664,19.9510672
"Bulwarowa, Nowa Huta, Kraków, małopolskie","Bulwarowa, Nowa Huta, Kraków, małopolskie","Bulwarowa, Nowa Huta, Kraków, województwo małopolskie, 32-977, Polska",50.0805703,20.0484836
"Olszyny, Dębniki, Kraków, małopolskie","Olszyny, Dębniki, Kraków, małopolskie","Olszyny, Dębniki, Kraków, województwo małopolskie, 30-399, Polska",49.9806745,19.8736667
"Chodkiewicza, Kraków, małopolskie","Chodkiewicza, Kraków, małopolskie","Jana Karola Chodkiewicza, Grzegórzki, Kraków, województwo małopolskie, 31-534, Polska",50.0562553,19.9538028
"Wiosenna, Zwierzyniec, Kraków, małopolskie","Wiosenna, Zwierzyniec, Kraków, małopolskie","Wiosenna, Chełm, Zwierzyniec, Kraków, województwo małopolskie, 30-237, Polska",50.0683302,19.8500249
"Borowego 35, Wola Justowska, Kraków, małopolskie","Borowego 35, Wola Justowska, Kraków, małopolskie","Piotra Borowego, Zwierzyniec, Kraków, województwo małopolskie, 30-214, Polska",50.0644927,19.890371
"Kamieńskiego, Wola Duchacka, Kraków, małopolskie","Kamieńskiego, Wola Duchacka, Kraków, małopolskie","Generała Henryka Kamieńskiego, Wola Duchacka, Podgórze Duchackie, Kraków, województwo małopolskie, 30-644, Polska",50.0283916,19.9546387
"Podskale, Stare Podgórze, Kraków, małopolskie","Podskale, Stare Podgórze, Kraków, małopolskie","Podskale, Stare Podgórze, Podgórze, Kraków, województwo małopolskie, 30-522, Polska",50.0378899,19.9420089
"Rydlówka, Dębniki, Kraków, małopolskie","Rydlówka, Dębniki, Kraków, małopolskie","Rydlówka, 28, Włodzimierza Tetmajera, Bronowice Małe, Bronowice, Kraków, województwo małopolskie, 31-398, Polska",50.08784005,19.87805496140262
"Pędzichów, Kleparz, Stare Miasto, Kraków, małopolskie","Pędzichów, Kleparz, Stare Miasto, Kraków, małopolskie","Pędzichów, Kleparz, Stare Miasto, Kraków, województwo małopolskie, 31-152, Polska",50.070287,19.9385371
"Aleja Pokoju, Czyżyny, Kraków, małopolskie","Aleja Pokoju, Czyżyny, Kraków, małopolskie","Aleja Pokoju, Łęg, Czyżyny, Kraków, województwo małopolskie, 31-564, Polska",50.063105,19.9843656
"Płaszowska, Płaszów, Podgórze, Kraków, małopolskie","Płaszowska, Płaszów, Podgórze, Kraków, małopolskie","Płaszowska, Zagumnie, Płaszów, Podgórze, Kraków, województwo małopolskie, 30-727, Polska",50.0446574,19.9739818
"Stawowa, Prądnik Biały, Kraków, małopolskie","Stawowa, Prądnik Biały, Kraków, małopolskie","Stawowa, Bronowice Wielkie, Prądnik Biały, Kraków, województwo małopolskie, 31-344, Polska",50.098438,19.8763138
"Rusznikarska, Krowodrza Górka, Prądnik Biały, Kraków, małopolskie","Rusznikarska, Krowodrza Górka, Prądnik Biały, Kraków, małopolskie","Rusznikarska, Krowodrza Górka, Prądnik Biały, Kraków, województwo małopolskie, 31-261, Polska",50.0841171,19.9270579
"Kobierzyńska 165, Kobierzyn, Kraków, małopolskie","Kobierzyńska 165, Kobierzyn, Kraków, małopolskie","Kobierzyńska, Kobierzyn, Dębniki, Kraków, województwo małopolskie, 30-390, Polska",50.0112424,19.8983765
"os. Kalinowe, Bieńczyce, Bieńczyce, Kraków, małopolskie","os. Kalinowe, Bieńczyce, Bieńczyce, Kraków, małopolskie","Osiedle Kalinowe, Bieńczyce, Kraków, województwo małopolskie, Polska",50.091117,20.013326731946403
"Grodzka/Stare Miasto, Stare Miasto, Stare Miasto, Kraków, małopolskie","Grodzka/Stare Miasto, Stare Miasto, Stare Miasto, Kraków, małopolskie","Grodzka, Stare Miasto, Kraków, województwo małopolskie, 31-006, Polska",50.0596453,19.9377677
"Chmieleniec, Dębniki, Kraków, małopolskie","Chmieleniec, Dębniki, Kraków, małopolskie","Chmieleniec, Osiedle Szuwarowa, Ruczaj, Dębniki, Kraków, województwo małopolskie, 30-382, Polska",50.0190472,19.9006675
"Sanocka, Wola Duchacka, Kraków, małopolskie","Sanocka, Wola Duchacka, Kraków, małopolskie","Sanocka, Wola Duchacka, Podgórze Duchackie, Kraków, województwo małopolskie, 30-622, Polska",50.0173255,19.9535859
"Górników, Prokocim, Kraków, małopolskie","Górników, Prokocim, Kraków, małopolskie","Górników, Stara Wieś, Prokocim, Bieżanów-Prokocim, Kraków, województwo małopolskie, 30-823, Polska",50.0195692,19.9936787
"Kazimierza Wielkiego, Łobzów, Krowodrza, Kraków, małopolskie","Kazimierza Wielkiego, Łobzów, Krowodrza, Kraków, małopolskie","Kazimierza Wielkiego, Łobzów, Krowodrza, Kraków, województwo małopolskie, 30-080, Polska",50.0744958,19.9105066
"Tomickiego, Czyżyny, Kraków, małopolskie","Tomickiego, Czyżyny, Kraków, małopolskie","Biskupa Piotra Tomickiego, Łęg, Czyżyny, Kraków, województwo małopolskie, 31-982, Polska",50.0655699,20.022839
"Komandosów – 47, Ludwinów, Dębniki, Kraków, małopolskie","Komandosów – 47, Ludwinów, Dębniki, Kraków, małopolskie","Komandosów, Osiedle Podwawelskie, Ludwinów, Dębniki, Kraków, województwo małopolskie, 30-334, Polska",50.0438559,19.9305603
"Królewska, Łobzów, Kraków, małopolskie","Królewska, Łobzów, Kraków, małopolskie","Królewska, Łobzów, Krowodrza, Kraków, województwo małopolskie, 30-080, Polska",50.0739807,19.9113537
"Bajeczna, Dąbie, Kraków, małopolskie","Bajeczna, Dąbie, Kraków, małopolskie","Bajeczna, Dąbie, Grzegórzki, Kraków, województwo małopolskie, 31-566, Polska",50.0574115,19.9766744
"Czarnowiejska, Stare Miasto, Kraków, małopolskie","Czarnowiejska, Stare Miasto, Kraków, małopolskie","Czarnowiejska, Piasek, Stare Miasto, Kraków, województwo małopolskie, 31-120, Polska",50.0655828,19.9258208
"Fatimska, Kraków, małopolskie","Fatimska, Kraków, małopolskie","Fatimska, Osiedle Złotej Jesieni, Bieńczyce, Kraków, województwo małopolskie, 31-828, Polska",50.0896905,20.0283375
"Zdrowa, Żabiniec, Prądnik Biały, Kraków, małopolskie","Zdrowa, Żabiniec, Prądnik Biały, Kraków, małopolskie","Zdrowa, Żabiniec, Prądnik Biały, Kraków, województwo małopolskie, 31-200, Polska",50.0879753,19.9455547
"Ćwiklińskiej, Dzielnica XII Bieżanów-Prokocim, Kraków, małopolskie","Ćwiklińskiej, Dzielnica XII Bieżanów-Prokocim, Kraków, małopolskie","Ćwiklińskiej, Mieczysławy Ćwiklińskiej, Osiedle Nowy Bieżanów-Północ, Bieżanów, Bieżanów-Prokocim, Kraków, województwo małopolskie, 30-863, Polska",50.01611,20.01882027450765
"pl. Na Groblach, Nowy Świat, Stare Miasto, Kraków, małopolskie","pl. Na Groblach, Nowy Świat, Stare Miasto, Kraków, małopolskie","Plac Na Groblach, Nowy Świat, Stare Miasto, Kraków, województwo małopolskie, 31-101, Polska",50.0568727,19.9333315
"Rysi Stok, Zwierzyniec, Kraków, małopolskie","Rysi Stok, Zwierzyniec, Kraków, małopolskie","Rysi Stok, Chełm, Zwierzyniec, Kraków, województwo małopolskie, 30-236, Polska",50.0694707,19.8534524
"Bronowicka, Krowodrza, Kraków, małopolskie","Bronowicka, Krowodrza, Kraków, małopolskie","Bronowicka, Bronowice, Kraków, województwo małopolskie, 30-124, Polska",50.0759556,19.90571
"Wizjonerów, Mydlniki, Bronowice, Kraków, małopolskie","Wizjonerów, Mydlniki, Bronowice, Kraków, małopolskie","Wizjonerów, Bronowice Małe, Bronowice, Kraków, województwo małopolskie, 31-356, Polska",50.0846035,19.8861483
"Osiedle Złotej Jesieni, Bieńczyce, Kraków, małopolskie","Osiedle Złotej Jesieni, Bieńczyce, Kraków, małopolskie","Osiedle Złotej Jesieni, Bieńczyce, Kraków, województwo małopolskie, 31-827, Polska",50.0910971,20.0256613
"Os. Złocień, Złocień, Kraków, małopolskie","Os. Złocień, Złocień, Kraków, małopolskie","Osiedle Kolejowe, Złocień, Bieżanów-Prokocim, Kraków, województwo małopolskie, 30-758, Polska",50.0264595,20.0392309
"Osiedle Złotej Jesieni, Bieńczyce, Bieńczyce, Kraków, małopolskie","Osiedle Złotej Jesieni, Bieńczyce, Bieńczyce, Kraków, małopolskie","Osiedle Złotej Jesieni, Bieńczyce, Kraków, województwo małopolskie, 31-827, Polska",50.0910971,20.0256613
"Kobierzyńska, Ruczaj-Zaborze, Kraków, małopolskie","Kobierzyńska, Ruczaj-Zaborze, Kraków, małopolskie","Kobierzyńska, Zaborze, Ruczaj, Dębniki, Kraków, województwo małopolskie, 30-386, Polska",50.025096,19.9119926
"Pola, Grzegórzki, Kraków, małopolskie","Pola, Grzegórzki, Kraków, małopolskie","Wincentego Pola, Grzegórzki, Kraków, województwo małopolskie, 31-532, Polska",50.0574878,19.9533977
"Emaus, Salwator, Kraków, małopolskie","Emaus, Salwator, Kraków, małopolskie","Emaus, Salwator, Zwierzyniec, Kraków, województwo małopolskie, 30-209, Polska",50.0562011,19.9072514
"Koletek, Stare Miasto, Kraków, małopolskie","Koletek, Stare Miasto, Kraków, małopolskie","Koletek, Stradom, Stare Miasto, Kraków, województwo małopolskie, 31-069, Polska",50.052117,19.9383519
"Ignacego Krasickiego, Stare Podgórze, Podgórze, Kraków, małopolskie","Ignacego Krasickiego, Stare Podgórze, Podgórze, Kraków, małopolskie","Ignacego Krasickiego, Stare Podgórze, Podgórze, Kraków, województwo małopolskie, 30-503, Polska",50.0412587,19.9402027
"Strzelnica, Las Wolski, Zwierzyniec, Kraków, małopolskie","Strzelnica, Las Wolski, Zwierzyniec, Kraków, małopolskie","Strzelnica, Zapiaski, Tyniec, Dębniki, Kraków, województwo małopolskie, 32-058, Polska",50.0145476,19.8332888
"prof. Wojciecha Marii Bartla, Kliny, Swoszowice, Kraków, małopolskie","prof. Wojciecha Marii Bartla, Kliny, Swoszowice, Kraków, małopolskie","Profesora Wojciecha Marii Bartla, Kliny Zacisze, Kliny, Swoszowice, Kraków, województwo małopolskie, 30-389, Polska",49.9988754,19.8965918
"Sarego, Wawel, Kraków, małopolskie","Sarego, Wawel, Kraków, małopolskie","Józefa Sarego, Stradom, Stare Miasto, Kraków, województwo małopolskie, 31-047, Polska",50.0567673,19.9425266
"Felicjanek, Nowy Świat, Kraków, małopolskie","Felicjanek, Nowy Świat, Kraków, małopolskie","Felicjanek, Nowy Świat, Stare Miasto, Kraków, województwo małopolskie, 31-105, Polska",50.0567884,19.9295432
"Bema, Śródmieście, Kraków, małopolskie","Bema, Śródmieście, Kraków, małopolskie","Generała Józefa Bema, Osiedle Oficerskie, Grzegórzki, Kraków, województwo małopolskie, 31-517, Polska",50.0711344,19.9620621
"Kordiana, Kurdwanów, Podgórze Duchackie, Kraków, małopolskie","Kordiana, Kurdwanów, Podgórze Duchackie, Kraków, małopolskie","Kordiana, Osiedle ""Kurdwanów Nowy"", Kurdwanów, Podgórze Duchackie, Kraków, województwo małopolskie, 30-653, Polska",50.0099957,19.9619085
"Miśnieńska, Mistrzejowice, Kraków, małopolskie","Miśnieńska, Mistrzejowice, Kraków, małopolskie","Miśnieńska, Mistrzejowice, Kraków, województwo małopolskie, 31-605, Polska",50.0916571,19.9998933
"Słowiańska, Piasek, Stare Miasto, Kraków, małopolskie","Słowiańska, Piasek, Stare Miasto, Kraków, małopolskie","Słowiańska, Kleparz, Stare Miasto, Kraków, województwo małopolskie, 31-147, Polska",50.0690911,19.9373317
"Norymberska, Pychowice, Dębniki, Kraków, małopolskie","Norymberska, Pychowice, Dębniki, Kraków, małopolskie","Norymberska, Zakrzówek, Dębniki, Kraków, województwo małopolskie, 30-309, Polska",50.0314972,19.9117338
"Jerozolimska, Dzielnica XIII Podgórze, Kraków, małopolskie","Jerozolimska, Dzielnica XIII Podgórze, Kraków, małopolskie","Jerozolimska, Kabel, Podgórze, Kraków, województwo małopolskie, 30-555, Polska",50.0367036,19.9663782
"Słomiana, Podgórze, Kraków, małopolskie","Słomiana, Podgórze, Kraków, małopolskie","Słomiana, Osiedle Podwawelskie, Ludwinów, Dębniki, Kraków, województwo małopolskie, 30-361, Polska",50.0412952,19.9248551
"Solvaya, Podgórze, Kraków, małopolskie","Solvaya, Podgórze, Kraków, małopolskie","Ernesta Solvaya, Borek Fałęcki, Łagiewniki-Borek Fałęcki, Kraków, województwo małopolskie, 30-427, Polska",50.0141253,19.9116839
"Montwiłła-Mireckiego, Borek Fałęcki, Kraków, małopolskie","Montwiłła-Mireckiego, Borek Fałęcki, Kraków, małopolskie","Józefa Montwiłła-Mireckiego, Borek Fałęcki, Łagiewniki-Borek Fałęcki, Kraków, województwo małopolskie, 30-426, Polska",50.0196132,19.927044
"Koletek, Wawel, Kraków, małopolskie","Koletek, Wawel, Kraków, małopolskie","Koletek, Stradom, Stare Miasto, Kraków, województwo małopolskie, 31-069, Polska",50.052117,19.9383519
"Lipska - okolice, Płaszów, Podgórze, Kraków, małopolskie","Lipska - okolice, Płaszów, Podgórze, Kraków, małopolskie","Lipska, Rogatka, Płaszów, Podgórze, Kraków, województwo małopolskie, 30-725, Polska",50.0405669,19.99269
"Krakowska, Kazimierz, Stare Miasto, Kraków, małopolskie","Krakowska, Kazimierz, Stare Miasto, Kraków, małopolskie","Krakowska, Kazimierz, Stare Miasto, Kraków, województwo małopolskie, 31-066, Polska",50.0481146,19.9434232
"Gnieźnieńska, Azory, Prądnik Biały, Kraków, małopolskie","Gnieźnieńska, Azory, Prądnik Biały, Kraków, małopolskie","Gnieźnieńska, Osiedle Azory, Prądnik Biały, Kraków, województwo małopolskie, 31-318, Polska",50.0874434,19.9079854
"Tetmajera, Bronowice Małe, Kraków, małopolskie","Tetmajera, Bronowice Małe, Kraków, małopolskie","Włodzimierza Tetmajera, Bronowice Małe, Bronowice, Kraków, województwo małopolskie, 31-080, Polska",50.0950069,19.8663291
"Łanowa, Kraków, małopolskie","Łanowa, Kraków, małopolskie","Łanowa, Rogatka, Płaszów, Podgórze, Kraków, województwo małopolskie, 30-725, Polska",50.0390674,19.9947226
"Zjazdu Gnieźnieńskiego, Mistrzejowice, Mistrzejowice, Kraków, małopolskie","Zjazdu Gnieźnieńskiego, Mistrzejowice, Mistrzejowice, Kraków, małopolskie","Zjazdu Gnieźnieńskiego, Mistrzejowice, Kraków, województwo małopolskie, 31-619, Polska",50.098484,19.9930851
"Lirników, Dzielnica XI Podgórze Duchackie, Kraków, małopolskie","Lirników, Dzielnica XI Podgórze Duchackie, Kraków, małopolskie","Lirników, Wola Duchacka, Podgórze Duchackie, Kraków, województwo małopolskie, 30-659, Polska",50.0164207,19.9643471
"Saska, Dzielnica XIII Podgórze, Kraków, małopolskie","Saska, Dzielnica XIII Podgórze, Kraków, małopolskie","Saska, Zagumnie, Płaszów, Podgórze, Kraków, województwo małopolskie, 30-720, Polska",50.0409028,19.9833069
"Macieja Dębskiego, Opatkowice, Swoszowice, Kraków, małopolskie","Macieja Dębskiego, Opatkowice, Swoszowice, Kraków, małopolskie","Macieja Dębskiego, Gaik, Opatkowice, Swoszowice, Kraków, województwo małopolskie, 30-499, Polska",49.9885772,19.9066078
"Tytusa Czyżewskiego, Łobzów, Krowodrza, Kraków, małopolskie","Tytusa Czyżewskiego, Łobzów, Krowodrza, Kraków, małopolskie","Tytusa Czyżewskiego, Łobzów, Krowodrza, Kraków, województwo małopolskie, 31-307, Polska",50.0809211,19.9147434
"Borkowska, Kliny, Swoszowice, Kraków, małopolskie","Borkowska, Kliny, Swoszowice, Kraków, małopolskie","Borkowska, Kliny, Swoszowice, Kraków, województwo małopolskie, 30-446, Polska",50.003103,19.9053923
"os. Willowe, Nowa Huta, Nowa Huta, Kraków, małopolskie","os. Willowe, Nowa Huta, Nowa Huta, Kraków, małopolskie","Osiedle Willowe, Nowa Huta, Kraków, województwo małopolskie, Polska",50.0721963,20.0500073
"Józefa Łepkowskiego 5, Prądnik Czerwony, Prądnik Czerwony, Kraków, małopolskie","Józefa Łepkowskiego 5, Prądnik Czerwony, Prądnik Czerwony, Kraków, małopolskie","5, Józefa Łepkowskiego, Prądnik Czerwony, Kraków, województwo małopolskie, 31-423, Polska",50.08971055,19.96178087906296
"Grażyny, Prądnik Biały, Prądnik Biały, Kraków, małopolskie","Grażyny, Prądnik Biały, Prądnik Biały, Kraków, małopolskie","Grażyny, Prądnik Biały, Kraków, województwo małopolskie, 31-212, Polska",50.0891638,19.9486697
"Łany, Łagiewniki, Kraków, małopolskie","Łany, Łagiewniki, Kraków, małopolskie","Łany, Budzyń, Tonie, Prądnik Biały, Kraków, województwo małopolskie, 31-338, Polska",50.1125702,19.8887086
"żabniec, Żabiniec, Prądnik Biały, Kraków, małopolskie","żabniec, Żabiniec, Prądnik Biały, Kraków, małopolskie","Żabiniec, Prądnik Biały, Kraków, województwo małopolskie, Polska",50.0859311,19.9417425
"Osiedle Teatralne, Nowa Huta, Nowa Huta, Kraków, małopolskie","Osiedle Teatralne, Nowa Huta, Nowa Huta, Kraków, małopolskie","Osiedle Teatralne, Nowa Huta, Kraków, województwo małopolskie, Polska",50.0797342,20.0327324
"Dytmara, Bronowice, Kraków, małopolskie","Dytmara, Bronowice, Kraków, małopolskie","Sołtysa Dytmara, Osiedle Widok-Zarzecze, Bronowice, Kraków, województwo małopolskie, 30-093, Polska",50.0796409,19.894077
"Emaus, Wola Justowska, Zwierzyniec, Kraków, małopolskie","Emaus, Wola Justowska, Zwierzyniec, Kraków, małopolskie","Emaus, Zwierzyniec, Kraków, województwo małopolskie, 30-143, Polska",50.0666592,19.8888757
"Pana Tadeusza, Kraków, małopolskie","Pana Tadeusza, Kraków, małopolskie","Pana Tadeusza, Zabłocie, Podgórze, Kraków, województwo małopolskie, 30-727, Polska",50.0465418,19.9748264
"Sołtysowska, Kraków, małopolskie","Sołtysowska, Kraków, małopolskie","Sołtysowska, Zawsie, Łęg, Czyżyny, Kraków, województwo małopolskie, 31-589, Polska",50.0611643,20.0237816
"Szwed-Śniadowskiej, Kliny Zacisze, Kraków, małopolskie","Szwed-Śniadowskiej, Kliny Zacisze, Kraków, małopolskie","Anny Szwed-Śniadowskiej, Osiedle Za Fortem, Kliny, Swoszowice, Kraków, województwo małopolskie, 30-389, Polska",49.99612635,19.89793185750853
"Nad Sudołem, Prądnik Biały, Prądnik Biały, Kraków, małopolskie","Nad Sudołem, Prądnik Biały, Prądnik Biały, Kraków, małopolskie","Nad Sudołem, Prądnik Biały, Kraków, województwo małopolskie, 31-277, Polska",50.091785,19.9228504
"Badurskiego, Podgórze Duchackie, Kraków, małopolskie","Badurskiego, Podgórze Duchackie, Kraków, małopolskie","Andrzeja Badurskiego, Osiedle Medyków, Prokocim, Bieżanów-Prokocim, Kraków, województwo małopolskie, 30-688, Polska",50.0111369,19.9910254
"Jagiellońskie, Kraków, małopolskie","Jagiellońskie, Kraków, małopolskie","Osiedle Jagiellońskie, Bieńczyce, Kraków, województwo małopolskie, Polska",50.0886537,20.0243697
"Zielińska, Prądnik Biały, Kraków, małopolskie","Zielińska, Prądnik Biały, Kraków, małopolskie","Zielińska, Prądnik Biały, Kraków, województwo małopolskie, 31-233, Polska",50.0954696,19.9321827
"Przyjaźni Polsko-Węgierskiej, Bonarka, Kraków, małopolskie","Przyjaźni Polsko-Węgierskiej, Bonarka, Kraków, małopolskie","Przyjaźni Polsko-Węgierskiej, Wola Duchacka, Podgórze Duchackie, Kraków, województwo małopolskie, 30-605, Polska",50.0243743,19.9460158
"Św. Tomasza 92, Stare Miasto, Stare Miasto, Kraków, małopolskie","Św. Tomasza 92, Stare Miasto, Stare Miasto, Kraków, małopolskie","Świętego Tomasza, Stare Miasto, Kraków, województwo małopolskie, 31-017, Polska",50.0628588,19.9398225
"Skotniki, Kraków, małopolskie","Skotniki, Kraków, małopolskie","Skotniki, Dębniki, Kraków, województwo małopolskie, Polska",50.0167394,19.8743705
"Osiedle Spółdzielcze, Bieńczyce, Kraków, małopolskie","Osiedle Spółdzielcze, Bieńczyce, Kraków, małopolskie","Osiedle Spółdzielcze, Nowa Huta, Kraków, województwo małopolskie, 31-943, Polska",50.0777259,20.0272257
"Stare Wiślisko, Nowa Huta, Kraków, małopolskie","Stare Wiślisko, Nowa Huta, Kraków, małopolskie","Stare Wiślisko, Mogiła, Nowa Huta, Kraków, województwo małopolskie, 31-979, Polska",50.058837,20.0543606
"Smocza, Stradom, Stare Miasto, Kraków, małopolskie","Smocza, Stradom, Stare Miasto, Kraków, małopolskie","Smocza, Stradom, Stare Miasto, Kraków, województwo małopolskie, 31-069, Polska",50.0523951,19.9351306
"Kwartowa |Widokowe, Prądnik Czerwony, Prądnik Czerwony, Kraków, małopolskie","Kwartowa |Widokowe, Prądnik Czerwony, Prądnik Czerwony, Kraków, małopolskie","Kwartowa, Prądnik Czerwony, Kraków, województwo małopolskie, 31-480, Polska",50.0937064,19.9820514
"Jana Karola Chodkiewicza, al. Ignacego Daszyńskiego, Grzegórzki, Grzegórzki, Kraków, małopolskie","Jana Karola Chodkiewicza, al. Ignacego Daszyńskiego, Grzegórzki, Grzegórzki, Kraków, małopolskie","Jana Karola Chodkiewicza, Grzegórzki, Kraków, województwo małopolskie, 31-534, Polska",50.0562553,19.9538028
"Borek Fałęcki, Łagiewniki-Borek Fałęcki, Kraków, małopolskie","Borek Fałęcki, Łagiewniki-Borek Fałęcki, Kraków, małopolskie","Borek Fałęcki, Łagiewniki-Borek Fałęcki, Kraków, województwo małopolskie, Polska",50.0143005,19.9265683
"Tetmajera, Dzielnica VI Bronowice, Kraków, małopolskie","Tetmajera, Dzielnica VI Bronowice, Kraków, małopolskie","Park Rzeczny im. Włodzimierza Tetmajera, Bronowice, Kraków, gmina Zabierzów, powiat krakowski, województwo małopolskie, Polska",50.09394855,19.864179582411168
"Świtezianki, Dąbie, Grzegórzki, Kraków, małopolskie","Świtezianki, Dąbie, Grzegórzki, Kraków, małopolskie","Świtezianki, Dąbie, Grzegórzki, Kraków, województwo małopolskie, 31-563, Polska",50.0626932,19.9799424
"Lublańska, Olsza, Prądnik Czerwony, Kraków, małopolskie","Lublańska, Olsza, Prądnik Czerwony, Kraków, małopolskie","Lublańska, Olsza II, Olsza, Prądnik Czerwony, Kraków, województwo małopolskie, 31-476, Polska",50.0849277,19.9652103
"Łęg, Czyżyny, Kraków, małopolskie","Łęg, Czyżyny, Kraków, małopolskie","Łęg, Czyżyny, Kraków, województwo małopolskie, Polska",50.0597222,20.0238889
"Macieja Miechowity, Rakowice, Prądnik Czerwony, Kraków, małopolskie","Macieja Miechowity, Rakowice, Prądnik Czerwony, Kraków, małopolskie","Macieja Miechowity, Olsza II, Olsza, Prądnik Czerwony, Kraków, województwo małopolskie, 31-471, Polska",50.0831615,19.9655351
"Truszkowskiego, Bronowice Małe, Kraków, małopolskie","Truszkowskiego, Bronowice Małe, Kraków, małopolskie","Księdza Stanisława Truszkowskiego, Bronowice Małe, Bronowice, Kraków, województwo małopolskie, 31-354, Polska",50.0934537,19.8733802
"Cienista, Bieńczyce, Kraków, małopolskie","Cienista, Bieńczyce, Kraków, małopolskie","Cienista, Osiedle Przy Arce, Bieńczyce, Kraków, województwo małopolskie, 31-831, Polska",50.0861873,20.0341928
"Maciejkowa, Tonie, Kraków, małopolskie","Maciejkowa, Tonie, Kraków, małopolskie","Maciejkowa, Budzyń, Tonie, Prądnik Biały, Kraków, województwo małopolskie, 31-336, Polska",50.107243,19.8960084
"Bracka, Stare Miasto, Kraków, małopolskie","Bracka, Stare Miasto, Kraków, małopolskie","Bracka, Stare Miasto, Kraków, województwo małopolskie, 31-005, Polska",50.0598698,19.9362162
"Jana Sobieskiego, Śródmieście, Kraków, małopolskie","Jana Sobieskiego, Śródmieście, Kraków, małopolskie","Jana Sobieskiego, Piasek, Stare Miasto, Kraków, województwo małopolskie, 31-135, Polska",50.0672917,19.931597
"Piastowska, Bronowice, Bronowice, Kraków, małopolskie","Piastowska, Bronowice, Bronowice, Kraków, małopolskie","Acatom Piastowska 30, Bronowice, Kraków, województwo małopolskie, 30-070, Polska",50.0709841,19.903964391869547
"Bieńczycka, Bieńczyce, Bieńczyce, Kraków, małopolskie","Bieńczycka, Bieńczyce, Bieńczyce, Kraków, małopolskie","Bieńczycka, Nowa Huta, Kraków, województwo małopolskie, 31-860, Polska",50.0772202,20.0235855
"Wygoda, Stare Miasto, Kraków, małopolskie","Wygoda, Stare Miasto, Kraków, małopolskie","Wygoda, Nowy Świat, Stare Miasto, Kraków, województwo małopolskie, 31-106, Polska",50.0571794,19.9279568
"Barska, Dębniki, Dębniki, Kraków, małopolskie","Barska, Dębniki, Dębniki, Kraków, małopolskie","Barska, Osiedle Podwawelskie, Ludwinów, Dębniki, Kraków, województwo małopolskie, 31-051, Polska",50.0455914,19.93269
"Magnolii, Borek Fałęcki, Kraków, małopolskie","Magnolii, Borek Fałęcki, Kraków, małopolskie","Magnolii, Zaborze, Ruczaj, Dębniki, Kraków, województwo małopolskie, 30-385, Polska",50.0229208,19.9136644
"Osiedle Przy Arce, Przy Arce, Kraków, małopolskie","Osiedle Przy Arce, Przy Arce, Kraków, małopolskie","Osiedle Przy Arce, Bieńczyce, Kraków, województwo małopolskie, Polska",50.083325900000006,20.02913619815253
"Stef. Otwinowskiego, Olsza, Prądnik Czerwony, Kraków, małopolskie","Stef. Otwinowskiego, Olsza, Prądnik Czerwony, Kraków, małopolskie","Stefana Otwinowskiego, Osiedle Oficerskie, Grzegórzki, Kraków, województwo małopolskie, 31-431, Polska",50.07822,19.9611863
"Studencka 25, Stare Miasto, Kraków, małopolskie","Studencka 25, Stare Miasto, Kraków, małopolskie","25, Studencka, Piasek, Stare Miasto, Kraków, województwo małopolskie, 31-116, Polska",50.0625349,19.928517808559064
"Vetulaniego, Krowodrza, Kraków, małopolskie","Vetulaniego, Krowodrza, Kraków, małopolskie","Adama Vetulaniego, Prądnik Biały, Kraków, województwo małopolskie, 31-226, Polska",50.0959509,19.9247837
"Felicjanek/ apartament, Nowy Świat, Stare Miasto, Kraków, małopolskie","Felicjanek/ apartament, Nowy Świat, Stare Miasto, Kraków, małopolskie","Felicjanek, Nowy Świat, Stare Miasto, Kraków, województwo małopolskie, 31-107, Polska",50.0581068,19.9295311
"Aleja 29 Listopada, Kraków, małopolskie","Aleja 29 Listopada, Kraków, małopolskie","Aleja 29 Listopada, Rogatka Warszawska, Olsza, Prądnik Czerwony, Kraków, województwo małopolskie, 31-425, Polska",50.081332,19.9512313
"Pilotów 81, Rakowice, Prądnik Czerwony, Kraków, małopolskie","Pilotów 81, Rakowice, Prądnik Czerwony, Kraków, małopolskie","81, Pilotów, Ugorek, Rakowice, Prądnik Czerwony, Kraków, województwo małopolskie, 31-462, Polska",50.08066335,19.97682022033365
"Karola Bunscha, Ruczaj, Dębniki, Kraków, małopolskie","Karola Bunscha, Ruczaj, Dębniki, Kraków, małopolskie","Karola Bunscha, Ruczaj, Dębniki, Kraków, województwo małopolskie, 30-392, Polska",50.017439,19.8893313
"Centrum C, Kraków, małopolskie","Centrum C, Kraków, małopolskie","Osiedle Centrum C, Nowa Huta, Kraków, województwo małopolskie, Polska",50.0741729,20.036048
"Zakrzowiecka, Pychowice, Kraków, małopolskie","Zakrzowiecka, Pychowice, Kraków, małopolskie","Zakrzowiecka, Pychowice, Dębniki, Kraków, województwo małopolskie, 30-387, Polska",50.0300421,19.8963808
"Na Zakolu Wisły, Dąbie, Kraków, małopolskie","Na Zakolu Wisły, Dąbie, Kraków, małopolskie","Na zakolu wisły, Podgórze, Kraków, województwo małopolskie, Polska",50.05356775,19.98429598154049
"Gromady Grudziąż, Podgórze Duchackie, Kraków, małopolskie","Gromady Grudziąż, Podgórze Duchackie, Kraków, małopolskie","Gromady Grudziąż, Wola Duchacka, Podgórze Duchackie, Kraków, województwo małopolskie, 30-620, Polska",50.0149826,19.9582971
"rtm. Zbigniewa Dunin-Wąsowicza, Zwierzyniec, Zwierzyniec, Kraków, małopolskie","rtm. Zbigniewa Dunin-Wąsowicza, Zwierzyniec, Zwierzyniec, Kraków, małopolskie","Rotmistrza Zbigniewa Dunin-Wąsowicza, Półwsie Zwierzynieckie, Zwierzyniec, Kraków, województwo małopolskie, 30-112, Polska",50.0567692,19.92248
"Zauchy, Górka Narodowa, Kraków, małopolskie","Zauchy, Górka Narodowa, Kraków, małopolskie","Zauchy, Papierni Prądnickich, Osiedle ""Górka Narodowa"", Prądnik Biały, Kraków, województwo małopolskie, 31-234, Polska",50.0998722,19.9520958
"Krowoderska, Wawel, Kraków, małopolskie","Krowoderska, Wawel, Kraków, małopolskie","Krowoderska, Kleparz, Stare Miasto, Kraków, województwo małopolskie, 31-142, Polska",50.0699442,19.9357048
"Tyniecka, Dzielnica XIII Podgórze, Kraków, małopolskie","Tyniecka, Dzielnica XIII Podgórze, Kraków, małopolskie","Tyniecka, Kostrze, Dębniki, Kraków, województwo małopolskie, 30-381, Polska",50.0279792,19.8484971
"Podgórze Duchackie, Kraków, małopolskie","Podgórze Duchackie, Kraków, małopolskie","Podgórze Duchackie, Kraków, województwo małopolskie, Polska",50.01618985,19.959420960382204
"Radziwiłłowska, Wesoła Zachód, Stare Miasto, Kraków, małopolskie","Radziwiłłowska, Wesoła Zachód, Stare Miasto, Kraków, małopolskie","Radziwiłłowska, Wesoła, Stare Miasto, Kraków, województwo małopolskie, 31-025, Polska",50.0629296,19.9469135
"Sasanek, Branice, Nowa Huta, Kraków, małopolskie","Sasanek, Branice, Nowa Huta, Kraków, małopolskie","Sasanek, Branice, Nowa Huta, Kraków, województwo małopolskie, 31-985, Polska",50.0697923,20.1386627
