address,manipulated address,location,latitude,longitude
"Czarodziejska, Dębniki, Dębniki, Kraków, małopolskie","Czarodziejska, Dębniki, Dębniki, Kraków, małopolskie","Czarodziejska, Osiedle Robotnicze, Dębniki, Kraków, województwo małopolskie, 30-328, Polska",50.049417,19.9140087
"Dębowa2, Przewóz, Podgórze, Kraków, małopolskie","Dębowa2, Przewóz, Podgórze, Kraków, małopolskie","2, Dębowa, Dębniki, Kraków, województwo małopolskie, 30-306, Polska",50.0480751,19.9283778
"Zbrojarzy, Krokusowa Przystań, Borek Fałęcki, Łagiewniki-Borek Fałęcki, Kraków, małopolskie","Zbrojarzy, Krokusowa Przystań, Borek Fałęcki, Łagiewniki-Borek Fałęcki, Kraków, małopolskie","Zbrojarzy, Borek Fałęcki, Łagiewniki-Borek Fałęcki, Kraków, województwo małopolskie, 30-418, Polska",50.0185362,19.9306262
"Wysłouchów, Bieżanów-Prokocim, Kraków, małopolskie","Wysłouchów, Bieżanów-Prokocim, Kraków, małopolskie","Marii i Bolesława Wysłouchów, Osiedle ""Kurdwanów Nowy"", Kurdwanów, Podgórze Duchackie, Kraków, województwo małopolskie, 30-611, Polska",50.0080626,19.9548721
"Kozłówka, Bieżanów-Prokocim, Kraków, małopolskie","Kozłówka, Bieżanów-Prokocim, Kraków, małopolskie","Kozłówka, Bieżanów-Prokocim, Kraków, województwo małopolskie, Polska",50.018646,19.9825244
"Gromadzka, Płaszów, Kraków, małopolskie","Gromadzka, Płaszów, Kraków, małopolskie","Gromadzka, Płaszów, Podgórze, Kraków, województwo małopolskie, 30-720, Polska",50.0363616,19.9823222
"Rydygiera, Rżąka, Kraków, małopolskie","Rydygiera, Rżąka, Kraków, małopolskie","Ludwika Rydygiera, Rżąka, Bieżanów-Prokocim, Kraków, województwo małopolskie, 30-695, Polska",50.0060445,20.0085536
"Grzegórzecka, Wesoła Wschód, Grzegórzki, Kraków, małopolskie","Grzegórzecka, Wesoła Wschód, Grzegórzki, Kraków, małopolskie","Grzegórzecka, Wesoła, Grzegórzki, Kraków, województwo małopolskie, 31-539, Polska",50.0578259,19.9583506
"Okulickiego, Kraków, małopolskie","Okulickiego, Kraków, małopolskie","Generała Leopolda Okulickiego, Osiedle Złotej Jesieni, Bieńczyce, Kraków, województwo małopolskie, 31-638, Polska",50.0932365,20.0299193
"Władysława Łokietka, Tonie, Prądnik Biały, Kraków, małopolskie","Władysława Łokietka, Tonie, Prądnik Biały, Kraków, małopolskie","Władysława Łokietka, Budzyń, Tonie, Prądnik Biały, Kraków, województwo małopolskie, 31-337, Polska",50.1174064,19.8933515
"Meissnera, Olsza, Kraków, małopolskie","Meissnera, Olsza, Kraków, małopolskie","Janusza Meissnera, Ugorek, Rakowice, Prądnik Czerwony, Kraków, województwo małopolskie, 31-465, Polska",50.0796912,19.9749499
"Pszczelna, Kraków, małopolskie","Pszczelna, Kraków, małopolskie","Pszczelna, Zaborze, Ruczaj, Dębniki, Kraków, województwo małopolskie, 30-431, Polska",50.0233652,19.9161079
"Osiedle Szkolne, Nowa Huta, Nowa Huta, Kraków, małopolskie","Osiedle Szkolne, Nowa Huta, Nowa Huta, Kraków, małopolskie","Osiedle Szkolne, Nowa Huta, Kraków, województwo małopolskie, Polska",50.0774958,20.0482373
"Smętna, Prądnik Biały, Kraków, małopolskie","Smętna, Prądnik Biały, Kraków, małopolskie","Smętna, Bronowice Wielkie, Prądnik Biały, Kraków, województwo małopolskie, 31-343, Polska",50.0927119,19.885334
"Pilotów 81, Rakowice, Prądnik Czerwony, Kraków, małopolskie","Pilotów 81, Rakowice, Prądnik Czerwony, Kraków, małopolskie","81, Pilotów, Ugorek, Rakowice, Prądnik Czerwony, Kraków, województwo małopolskie, 31-462, Polska",50.08066335,19.97682022033365
"Bagrowa 72, Mały Płaszów, Kraków, małopolskie","Bagrowa 72, Mały Płaszów, Kraków, małopolskie","72, Bagrowa, Rogatka, Płaszów, Podgórze, Kraków, województwo małopolskie, 30-733, Polska",50.036756,19.998433466479483
"Piastowska, Cichy Kącik, Kraków, małopolskie","Piastowska, Cichy Kącik, Kraków, małopolskie","Piastowska, Cichy Kącik, Czarna Wieś, Krowodrza, Kraków, województwo małopolskie, 30-067, Polska",50.0680753,19.9032289
"Bobrzyńskiego, Podgórze, Kraków, małopolskie","Bobrzyńskiego, Podgórze, Kraków, małopolskie","Profesora Michała Bobrzyńskiego, Skotniki, Dębniki, Kraków, województwo małopolskie, 30-392, Polska",50.0177701,19.8903849
"Oskara Kolberga, Kleparz, Stare Miasto, Kraków, małopolskie","Oskara Kolberga, Kleparz, Stare Miasto, Kraków, małopolskie","Oskara Kolberga, Kleparz, Stare Miasto, Kraków, województwo małopolskie, 31-161, Polska",50.0716654,19.9347164
"Szafrana, Dzielnica XIII Podgórze, Kraków, małopolskie","Szafrana, Dzielnica XIII Podgórze, Kraków, małopolskie","Tadeusza Szafrana, Stare Podgórze, Podgórze, Kraków, województwo małopolskie, 30-636, Polska",50.0345918,19.93293
"Karola Bunscha, Ruczaj, Dębniki, Kraków, małopolskie","Karola Bunscha, Ruczaj, Dębniki, Kraków, małopolskie","Karola Bunscha, Ruczaj, Dębniki, Kraków, województwo małopolskie, 30-392, Polska",50.017439,19.8893313
"Dwernickiego, Wesoła, Kraków, małopolskie","Dwernickiego, Wesoła, Kraków, małopolskie","Generała Józefa Dwernickiego, Wesoła II, Grzegórzki, Kraków, województwo małopolskie, 31-502, Polska",50.0595034,19.9487795
"Pachońskiego 0, Prądnik Biały, Prądnik Biały, Kraków, małopolskie","Pachońskiego 0, Prądnik Biały, Prądnik Biały, Kraków, małopolskie","Henryka Pachońskiego, Prądnik Biały, Kraków, województwo małopolskie, 31-223, Polska",50.0935683,19.9225386
"Starowiślna, Podgórze, Kraków, małopolskie","Starowiślna, Podgórze, Kraków, małopolskie","Starowiślna, Kazimierz, Stare Miasto, Kraków, województwo małopolskie, 31-037, Polska",50.0527084,19.949249
"Sądowa 1, Grzegórzki, Grzegórzki, Kraków, małopolskie","Sądowa 1, Grzegórzki, Grzegórzki, Kraków, małopolskie","1, Sądowa, Grzegórzki, Kraków, województwo małopolskie, 31-542, Polska",50.0625139,19.965412579409232
"Małysiaka, Ruczaj, Kraków, małopolskie","Małysiaka, Ruczaj, Kraków, małopolskie","Biskupa Albina Małysiaka, Kobierzyn, Dębniki, Kraków, województwo małopolskie, 30-389, Polska",49.9987185,19.8938794
"Bonerowska, Stare Miasto, Kraków, małopolskie","Bonerowska, Stare Miasto, Kraków, małopolskie","Bonerowska, Wesoła, Stare Miasto, Kraków, województwo małopolskie, 31-030, Polska",50.0590613,19.945732
"Zakrzowiecka 57, Pychowice, Pychowice, Dębniki, Kraków, małopolskie","Zakrzowiecka 57, Pychowice, Pychowice, Dębniki, Kraków, małopolskie","57b, Zakrzowiecka, Pychowice, Dębniki, Kraków, województwo małopolskie, 30-387, Polska",50.0304819,19.8972046
"Na Wrzosach, Prokocim, Bieżanów-Prokocim, Kraków, małopolskie","Na Wrzosach, Prokocim, Bieżanów-Prokocim, Kraków, małopolskie","Na Wrzosach, Stara Wieś, Prokocim, Bieżanów-Prokocim, Kraków, województwo małopolskie, 30-830, Polska",50.0206713,19.9969082
"Chełmońskiego, Kraków, małopolskie","Chełmońskiego, Kraków, małopolskie","Józefa Chełmońskiego, Azory, Prądnik Biały, Kraków, województwo małopolskie, 31-306, Polska",50.0853627,19.9166436
"Czarnowiejska, Czarna Wieś, Krowodrza, Kraków, małopolskie","Czarnowiejska, Czarna Wieś, Krowodrza, Kraków, małopolskie","Czarnowiejska, Czarna Wieś, Krowodrza, Kraków, województwo małopolskie, 30-047, Polska",50.0662171,19.9230558
"Potebni, Kraków, małopolskie","Potebni, Kraków, małopolskie","Andrzeja Potebni, Stare Podgórze, Podgórze, Kraków, województwo małopolskie, 30-537, Polska",50.0430608,19.9519714
"Murarska, Azory, Kraków, małopolskie","Murarska, Azory, Kraków, małopolskie","Murarska, Azory, Prądnik Biały, Kraków, województwo małopolskie, 31-310, Polska",50.0839989,19.9110676
"Lipska - okolice, Płaszów, Podgórze, Kraków, małopolskie","Lipska - okolice, Płaszów, Podgórze, Kraków, małopolskie","Lipska, Rogatka, Płaszów, Podgórze, Kraków, województwo małopolskie, 30-725, Polska",50.0405669,19.99269
"Mała Góra, Prokocim, Kraków, małopolskie","Mała Góra, Prokocim, Kraków, małopolskie","Mała Góra, Bieżanów, Bieżanów-Prokocim, Kraków, województwo małopolskie, 30-696, Polska",50.0064281,20.0183689
"Dębskiego, Opatkowice, Kraków, małopolskie","Dębskiego, Opatkowice, Kraków, małopolskie","Macieja Dębskiego, Gaik, Opatkowice, Swoszowice, Kraków, województwo małopolskie, 30-499, Polska",49.9885772,19.9066078
"Kuźnicy Kołłątajowskiej, Górka Narodowa, Prądnik Biały, Kraków, małopolskie","Kuźnicy Kołłątajowskiej, Górka Narodowa, Prądnik Biały, Kraków, małopolskie","Kuźnicy Kołłątajowskiej, Górka Narodowa, Prądnik Biały, Kraków, województwo małopolskie, 31-220, Polska",50.0981141,19.9599517
"Do Przystani, Przegorzały, Zwierzyniec, Kraków, małopolskie","Do Przystani, Przegorzały, Zwierzyniec, Kraków, małopolskie","Do Przystani, Przegorzały, Zwierzyniec, Kraków, województwo małopolskie, 30-254, Polska",50.0438255,19.8890371
"Bobrzyńskiego 39a, Europejskie, Kraków, małopolskie","Bobrzyńskiego 39a, Europejskie, Kraków, małopolskie","39a, Profesora Michała Bobrzyńskiego, Osiedle Szuwarowa, Ruczaj, Dębniki, Kraków, województwo małopolskie, 30-348, Polska",50.016029,19.8923918
"Osiedle Kliny Borkowskie, Dębniki, Kraków, małopolskie","Osiedle Kliny Borkowskie, Dębniki, Kraków, małopolskie","Borkowska, Kliny, Swoszowice, Kraków, województwo małopolskie, 30-446, Polska",50.0041545,19.9043566
"Osiedle Kliny Borkowskie, Dębniki, Kraków, małopolskie","Osiedle Kliny Borkowskie, Dębniki, Kraków, małopolskie","Borkowska, Osiedle Za Fortem, Kliny, Swoszowice, Kraków, województwo małopolskie, 30-438, Polska",50.0040984,19.9058222
"Pędzichów, Śródmieście, Kraków, małopolskie","Pędzichów, Śródmieście, Kraków, małopolskie","Pędzichów, Kleparz, Stare Miasto, Kraków, województwo małopolskie, 31-152, Polska",50.070287,19.9385371
"Żmujdzka, Prądnik Czerwony, Kraków, małopolskie","Żmujdzka, Prądnik Czerwony, Kraków, małopolskie","Żmujdzka, Rogatka Warszawska, Olsza, Prądnik Czerwony, Kraków, województwo małopolskie, 31-426, Polska",50.0855813,19.9518798
"Wiśniowy Sad, Nowa Huta, Nowa Huta, Kraków, małopolskie","Wiśniowy Sad, Nowa Huta, Nowa Huta, Kraków, małopolskie","Wiśniowy Sad, Nowa Huta, Kraków, województwo małopolskie, 31-938, Polska",50.0751444,20.0281025
"Kapelanka - 2, Ludwinów, Dębniki, Kraków, małopolskie","Kapelanka - 2, Ludwinów, Dębniki, Kraków, małopolskie","Kapelanka, Ludwinów, Dębniki, Kraków, województwo małopolskie, 30-347, Polska",50.0351831,19.9258132
"Wielicka, Dzielnica XIII Podgórze, Kraków, małopolskie","Wielicka, Dzielnica XIII Podgórze, Kraków, małopolskie","Wielicka, Kabel, Podgórze, Kraków, województwo małopolskie, 30-552, Polska",50.0350266,19.9681731
"Lubocka 31C, Lubocza, Wzgórza Krzesławickie, Kraków, małopolskie","Lubocka 31C, Lubocza, Wzgórza Krzesławickie, Kraków, małopolskie","31c, Lubocka, Bugaj, Lubocza, Wzgórza Krzesławickie, Kraków, województwo małopolskie, 31-766, Polska",50.0944947,20.0816233
"Jasna, Prądnik Biały, Prądnik Biały, Kraków, małopolskie","Jasna, Prądnik Biały, Prądnik Biały, Kraków, małopolskie","Jasna, Prądnik Biały, Kraków, województwo małopolskie, 31-225, Polska",50.0958319,19.930006
"Domagały, Płaszów, Kraków, małopolskie","Domagały, Płaszów, Kraków, małopolskie","Mariana Domagały, Złocień, Bieżanów-Prokocim, Kraków, województwo małopolskie, 30-798, Polska",50.0280265,20.0516127
"Na Ustroniu, Ludwinów, Dębniki, Kraków, małopolskie","Na Ustroniu, Ludwinów, Dębniki, Kraków, małopolskie","Na Ustroniu, Osiedle Podwawelskie, Ludwinów, Dębniki, Kraków, województwo małopolskie, 31-051, Polska",50.046101,19.9317678
"Oboźna 13A, ul. Mazowiecka, ul. Litewska, ul. Wójtowska, ul. Poznańska, Krowodrza, Krowodrza, Kraków, małopolskie","Oboźna 13A, Kraków, małopolskie","13a, Oboźna, Nowy Kleparz, Krowodrza, Kraków, województwo małopolskie, 30-011, Polska",50.07823505,19.92800720732717
"os. Kościuszkowskie, Kraków, małopolskie","os. Kościuszkowskie, Kraków, małopolskie","Osiedle Kościuszkowskie, Bieńczyce, Kraków, województwo małopolskie, Polska",50.0828417,20.0139522
"Wierzyńskiego, Mydlniki, Kraków, małopolskie","Wierzyńskiego, Mydlniki, Kraków, małopolskie","Kazimierza Wierzyńskiego, Mydlniki, Bronowice, Kraków, województwo małopolskie, 30-198, Polska",50.0848294,19.8500187
"Rzemieślnicza, Dzielnica XIII Podgórze, Kraków, małopolskie","Rzemieślnicza, Dzielnica XIII Podgórze, Kraków, małopolskie","Rzemieślnicza, Stare Podgórze, Podgórze, Kraków, województwo małopolskie, 30-415, Polska",50.0332651,19.9387815
"Opatkowicka, Opatkowice, Swoszowice, Kraków, małopolskie","Opatkowicka, Opatkowice, Swoszowice, Kraków, małopolskie","Opatkowicka, Zadworze, Opatkowice, Swoszowice, Kraków, województwo małopolskie, 30-499, Polska",49.9836953,19.9160164
"Dworcowa, Kabel, Podgórze, Kraków, małopolskie","Dworcowa, Kabel, Podgórze, Kraków, małopolskie","Dworcowa, Kabel, Podgórze, Kraków, województwo małopolskie, 30-559, Polska",50.0330162,19.9703454
"Sosnowiecka, Bronowice, Kraków, małopolskie","Sosnowiecka, Bronowice, Kraków, małopolskie","Sosnowiecka, Bronowice Wielkie, Prądnik Biały, Kraków, województwo małopolskie, 31-340, Polska",50.0898227,19.903078
"Józefa Dietla, Kazimierz, Stare Miasto, Kraków, małopolskie","Józefa Dietla, Kazimierz, Stare Miasto, Kraków, małopolskie","Józefa Dietla, Kazimierz, Stare Miasto, Kraków, województwo małopolskie, 31-031, Polska",50.0573708,19.9464588
"Igołomska, Branice, Kraków, małopolskie","Igołomska, Branice, Kraków, małopolskie","Igołomska, Branice, Nowa Huta, Kraków, województwo małopolskie, 31-987, Polska",50.0749765,20.1389682
"Ułanów 72, Rakowice, Kraków, małopolskie","Ułanów 72, Rakowice, Kraków, małopolskie","72, Ułanów, Ugorek, Rakowice, Prądnik Czerwony, Kraków, województwo małopolskie, 31-460, Polska",50.0811121,19.979225749349908
"Półwsie Zwierzynieckie, Kraków, małopolskie","Półwsie Zwierzynieckie, Kraków, małopolskie","Półwsie Zwierzynieckie, Zwierzyniec, Kraków, województwo małopolskie, 30-109, Polska",50.0551652,19.9189682
"Małe Błonia, Krowodrza, Kraków, małopolskie","Małe Błonia, Krowodrza, Kraków, małopolskie","Małe Błonia, Krowodrza, Kraków, województwo małopolskie, Polska",50.0688325,19.8948344
"Żytnia, Kraków, małopolskie","Żytnia, Kraków, małopolskie","Żytnia, Wiśniowa, Olsza, Prądnik Czerwony, Kraków, województwo małopolskie, 31-414, Polska",50.0848375,19.956641
"Osiedle Kalinowe, Bieńczyce, Bieńczyce, Kraków, małopolskie","Osiedle Kalinowe, Bieńczyce, Bieńczyce, Kraków, małopolskie","Osiedle Kalinowe, Bieńczyce, Kraków, województwo małopolskie, Polska",50.091117,20.013326731946403
"bpa Albina Małysiaka, Kobierzyn, Dębniki, Kraków, małopolskie","bpa Albina Małysiaka, Kobierzyn, Dębniki, Kraków, małopolskie","Biskupa Albina Małysiaka, Kobierzyn, Dębniki, Kraków, województwo małopolskie, 30-389, Polska",49.9987185,19.8938794
"Paszkowskiego, Prądnik Biały, Kraków, małopolskie","Paszkowskiego, Prądnik Biały, Kraków, małopolskie","Generała Franciszka Paszkowskiego, Kaczorówka, Tonie, Prądnik Biały, Kraków, województwo małopolskie, 31-266, Polska",50.1072071,19.905744
"Mogilska, płk. pil. Stefana Łaszkiewicza, Rakowice, Prądnik Czerwony, Kraków, małopolskie","Mogilska, płk. pil. Stefana Łaszkiewicza, Rakowice, Prądnik Czerwony, Kraków, małopolskie","Mogilska, Rakowice, Prądnik Czerwony, Kraków, województwo małopolskie, 31-445, Polska",50.0683348,19.9793749
"Szafrana, Podgórze, Kraków, małopolskie","Szafrana, Podgórze, Kraków, małopolskie","Tadeusza Szafrana, Stare Podgórze, Podgórze, Kraków, województwo małopolskie, 30-636, Polska",50.0345918,19.93293
"Stawowa, Bronowice Wielkie, Kraków, małopolskie","Stawowa, Bronowice Wielkie, Kraków, małopolskie","Stawowa, Bronowice Wielkie, Prądnik Biały, Kraków, województwo małopolskie, 31-344, Polska",50.098438,19.8763138
"Bronowice, Bronowice, Kraków, małopolskie","Bronowice, Bronowice, Kraków, małopolskie","Bronowice, Kraków, województwo małopolskie, 30-139, Polska",50.0786786,19.8882695
"Jana Zamoyskiego, Stare Podgórze, Podgórze, Kraków, małopolskie","Jana Zamoyskiego, Stare Podgórze, Podgórze, Kraków, małopolskie","Jana Zamoyskiego, Stare Podgórze, Podgórze, Kraków, województwo małopolskie, 30-521, Polska",50.0414529,19.9449008
"Emaus, Zwierzyniec, Kraków, małopolskie","Emaus, Zwierzyniec, Kraków, małopolskie","Emaus, Zwierzyniec, Kraków, województwo małopolskie, 30-213, Polska",50.0606141,19.8984091
"Duża Góra, Bieżanów, Bieżanów-Prokocim, Kraków, małopolskie","Duża Góra, Bieżanów, Bieżanów-Prokocim, Kraków, małopolskie","Duża Góra, Osiedle Nowy Bieżanów-Północ, Bieżanów, Bieżanów-Prokocim, Kraków, województwo małopolskie, 30-857, Polska",50.0178909,20.0225537
"Podkowińskiego, Prądnik Biały, Kraków, małopolskie","Podkowińskiego, Prądnik Biały, Kraków, małopolskie","Władysława Podkowińskiego, Azory, Prądnik Biały, Kraków, województwo małopolskie, 31-321, Polska",50.0849586,19.8949096
"Zagrody, Dębniki, Kraków, małopolskie","Zagrody, Dębniki, Kraków, małopolskie","Zagrody, Dębniki, Kraków, województwo małopolskie, 30-317, Polska",50.04929,19.9233371
"Rejtana 4, Stare Podgórze, Kraków, małopolskie","Rejtana 4, Stare Podgórze, Kraków, małopolskie","4, Tadeusza Rejtana, Stare Podgórze, Podgórze, Kraków, województwo małopolskie, 30-510, Polska",50.0439341,19.9457372
"al. gen. Władysława Andersa, Bieńczyce, Bieńczyce, Kraków, małopolskie","al. gen. Władysława Andersa, Bieńczyce, Bieńczyce, Kraków, małopolskie","Aleja generała Władysława Andersa, Osiedle Wysokie, Bieńczyce, Kraków, województwo małopolskie, 31-801, Polska",50.0849744,20.0180988
"Kątowa 10, Przedmieście Warszawskie, Stare Miasto, Kraków, małopolskie","Kątowa 10, Przedmieście Warszawskie, Stare Miasto, Kraków, małopolskie","10, Kątowa, Przedmieście Warszawskie, Stare Miasto, Kraków, województwo małopolskie, 31-404, Polska",50.073999650000005,19.947375845797808
"Heleny, Podgórze Duchackie, Kraków, małopolskie","Heleny, Podgórze Duchackie, Kraków, małopolskie","Heleny, Osiedle Nowy Bieżanów-Północ, Bieżanów, Bieżanów-Prokocim, Kraków, województwo małopolskie, 30-857, Polska",50.0146953,20.0245091
"Maciejkowa, Tonie, Prądnik Biały, Kraków, małopolskie","Maciejkowa, Tonie, Prądnik Biały, Kraków, małopolskie","Maciejkowa, Budzyń, Tonie, Prądnik Biały, Kraków, województwo małopolskie, 31-336, Polska",50.107243,19.8960084
"Żółkiewskiego, Grzegórzki, Kraków, małopolskie","Żółkiewskiego, Grzegórzki, Kraków, małopolskie","Hetmana Stanisława Żółkiewskiego, Wesoła, Grzegórzki, Kraków, województwo małopolskie, 31-539, Polska",50.0577378,19.9579385
"Lasówka, Płaszów, Kraków, małopolskie","Lasówka, Płaszów, Kraków, małopolskie","Lasówka, Płaszów, Podgórze, Kraków, województwo małopolskie, 30-723, Polska",50.0404753,20.0151209
"Studencka 29, Piasek, Stare Miasto, Kraków, małopolskie","Studencka 29, Piasek, Stare Miasto, Kraków, małopolskie","29, Studencka, Piasek, Stare Miasto, Kraków, województwo małopolskie, 31-116, Polska",50.0624615,19.927989001376936
"Kotlarska, Grzegórzki, Grzegórzki, Kraków, małopolskie","Kotlarska, Grzegórzki, Grzegórzki, Kraków, małopolskie","Kotlarska, Grzegórzki, Kraków, województwo małopolskie, 31-540, Polska",50.0541382,19.9597688
"Łanowa, Płaszów, Kraków, małopolskie","Łanowa, Płaszów, Kraków, małopolskie","Łanowa, Rogatka, Płaszów, Podgórze, Kraków, województwo małopolskie, 30-721, Polska",50.0390004,19.9970617
"Tyniecka – 51, Bodzów, Dębniki, Kraków, małopolskie","Tyniecka – 51, Bodzów, Dębniki, Kraków, małopolskie","Tyniecka, Bodzów, Dębniki, Kraków, województwo małopolskie, 30-377, Polska",50.0356067,19.8871853
"Mieczykowa, Kliny, Kraków, małopolskie","Mieczykowa, Kliny, Kraków, małopolskie","Mieczykowa, Osiedle Za Fortem, Kliny, Swoszowice, Kraków, województwo małopolskie, 30-446, Polska",49.9985935,19.9015394
"Przyjaźni Polsko-Węgierskiej, Wola Duchacka, Podgórze Duchackie, Kraków, małopolskie","Przyjaźni Polsko-Węgierskiej, Wola Duchacka, Podgórze Duchackie, Kraków, małopolskie","Przyjaźni Polsko-Węgierskiej, Wola Duchacka, Podgórze Duchackie, Kraków, województwo małopolskie, 30-605, Polska",50.0243743,19.9460158
"Rakowickiej, Wesoła Wschód, Grzegórzki, Kraków, małopolskie","Rakowickiej, Wesoła Wschód, Grzegórzki, Kraków, małopolskie","Rakowicka, Osiedle Oficerskie, Grzegórzki, Kraków, województwo małopolskie, 31-509, Polska",50.0687346,19.9529591
"Wizjonerów, Bronowice Małe, Bronowice, Kraków, małopolskie","Wizjonerów, Bronowice Małe, Bronowice, Kraków, małopolskie","Wizjonerów, Bronowice Małe, Bronowice, Kraków, województwo małopolskie, 31-356, Polska",50.0846035,19.8861483
"Wysłouchów 30, Kurdwanów, Kraków, małopolskie","Wysłouchów 30, Kurdwanów, Kraków, małopolskie","30, Marii i Bolesława Wysłouchów, Osiedle ""Kurdwanów Nowy"", Kurdwanów, Podgórze Duchackie, Kraków, województwo małopolskie, 30-611, Polska",50.0069867,19.95873863868604
"Osterwy, Swoszowice, Kraków, małopolskie","Osterwy, Swoszowice, Kraków, małopolskie","Juliusza Osterwy, Kosocice, Swoszowice, Kraków, województwo małopolskie, 30-692, Polska",49.9920551,19.9786041
"Piltza, Piltza, Kraków, małopolskie","Piltza, Piltza, Kraków, małopolskie","Doktora Jana Piltza, Kobierzyn, Dębniki, Kraków, województwo małopolskie, 30-392, Polska",50.0119297,19.8919971
"Nioepodległości, Bieńczyce, Bieńczyce, Kraków, małopolskie","Nioepodległości, Bieńczyce, Bieńczyce, Kraków, małopolskie","Osiedle Niepodległości, Bieńczyce, Kraków, województwo małopolskie, Polska",50.0806819,20.0235925
"Małysiaka, Kliny Zacisze, Kraków, małopolskie","Małysiaka, Kliny Zacisze, Kraków, małopolskie","Biskupa Albina Małysiaka, Kobierzyn, Dębniki, Kraków, województwo małopolskie, 30-389, Polska",49.9987185,19.8938794
"Jerzmanowskiego, Bieżanów, Kraków, małopolskie","Jerzmanowskiego, Bieżanów, Kraków, małopolskie","Erazma Jerzmanowskiego, Nad Potokiem, Prokocim, Bieżanów-Prokocim, Kraków, województwo małopolskie, 30-870, Polska",50.0116945,20.0106947
"Błażeja Czepca, Bronowice, Bronowice, Kraków, małopolskie","Błażeja Czepca, Bronowice, Bronowice, Kraków, małopolskie","Błażeja Czepca, Bronowice, Kraków, województwo małopolskie, 30-095, Polska",50.0809809,19.8966036
"Bożego Ciała, Kazimierz, Stare Miasto, Kraków, małopolskie","Bożego Ciała, Kazimierz, Stare Miasto, Kraków, małopolskie","Bożego Ciała, Kazimierz, Stare Miasto, Kraków, województwo małopolskie, 31-062, Polska",50.0504267,19.9440193
"Łobzów, Łobzów, Kraków, małopolskie","Łobzów, Łobzów, Kraków, małopolskie","Ogrody Łobzów, Łobzów, Krowodrza, Kraków, województwo małopolskie, Polska",50.07642945,19.909990573818323
"Bojki, Podgórze Duchackie, Kraków, małopolskie","Bojki, Podgórze Duchackie, Kraków, małopolskie","Jakuba Bojki, Kurdwanów, Podgórze Duchackie, Kraków, województwo małopolskie, 30-647, Polska",50.0069552,19.9645207
"Macedońska, Wola Duchacka, Podgórze Duchackie, Kraków, małopolskie","Macedońska, Wola Duchacka, Podgórze Duchackie, Kraków, małopolskie","Macedońska, Wola Duchacka, Podgórze Duchackie, Kraków, województwo małopolskie, 30-629, Polska",50.0210681,19.9737005
"Lea, Łobzów, Krowodrza, Kraków, małopolskie","Lea, Łobzów, Krowodrza, Kraków, małopolskie","Juliusza Lea, Łobzów, Krowodrza, Kraków, województwo małopolskie, 30-070, Polska",50.0723293,19.9050999
"Rakowicka, Śródmieście, Kraków, małopolskie","Rakowicka, Śródmieście, Kraków, małopolskie","Rakowicka, Osiedle Oficerskie, Grzegórzki, Kraków, województwo małopolskie, 31-509, Polska",50.0687346,19.9529591
"Rozdroże, Dębniki, Kraków, małopolskie","Rozdroże, Dębniki, Kraków, małopolskie","Rozdroże, Osiedle Podwawelskie, Ludwinów, Dębniki, Kraków, województwo małopolskie, 30-334, Polska",50.0413672,19.9316964
"Śląskiej, Stare Miasto, Stare Miasto, Kraków, małopolskie","Śląskiej, Stare Miasto, Stare Miasto, Kraków, małopolskie","Śląska, Nowy Kleparz, Krowodrza, Kraków, województwo małopolskie, 30-003, Polska",50.0748901,19.9322991
"Starego Dębu, Bronowice Wielkie, Kraków, małopolskie","Starego Dębu, Bronowice Wielkie, Kraków, małopolskie","Starego Dębu, Bronowice Wielkie, Prądnik Biały, Kraków, województwo małopolskie, 31-355, Polska",50.101904,19.8688625
"Władysława Łokietka, Krowodrza, Krowodrza, Kraków, małopolskie","Władysława Łokietka, Krowodrza, Krowodrza, Kraków, małopolskie","Władysława Łokietka, Nowy Kleparz, Krowodrza, Kraków, województwo małopolskie, 30-006, Polska",50.0765491,19.9304869
"Szpitalna, Kraków, małopolskie","Szpitalna, Kraków, małopolskie","Szpitalna, Stare Miasto, Kraków, województwo małopolskie, 31-024, Polska",50.0637116,19.9419159
"Grzegórzeckiej, ul. Grzegórzecka 67G, Grzegórzki, Grzegórzki, Kraków, małopolskie","Grzegórzeckiej, ul. Grzegórzecka 67G, Grzegórzki, Grzegórzki, Kraków, małopolskie","Grzegórzecka, Wesoła, Grzegórzki, Kraków, województwo małopolskie, 31-539, Polska",50.0578259,19.9583506
"Stanisława Kostki Potockiego, Górka Narodowa, Prądnik Biały, Kraków, małopolskie","Stanisława Kostki Potockiego, Górka Narodowa, Prądnik Biały, Kraków, małopolskie","Stanisława Kostki Potockiego, Górka Narodowa, Prądnik Biały, Kraków, województwo małopolskie, 31-220, Polska",50.1004107,19.9614781
"Sławkowska 19, Stare Miasto, Kraków, małopolskie","Sławkowska 19, Stare Miasto, Kraków, małopolskie","19, Sławkowska, Stare Miasto, Kraków, województwo małopolskie, 31-014, Polska",50.064724850000005,19.938553168227035
"Chałupnika, Olsza, Kraków, małopolskie","Chałupnika, Olsza, Kraków, małopolskie","Ogrody Chałupnika, Prądnik Czerwony, Kraków, województwo małopolskie, Polska",50.074736400000006,19.97454706330726
"Bpa. Albina Małysiaka, Kobierzyn, Dębniki, Kraków, małopolskie","Bpa. Albina Małysiaka, Kobierzyn, Dębniki, Kraków, małopolskie","Biskupa Albina Małysiaka, Kobierzyn, Dębniki, Kraków, województwo małopolskie, 30-389, Polska",49.9987185,19.8938794
"Osiedle Piastów, Nowa Huta, Kraków, małopolskie","Osiedle Piastów, Nowa Huta, Kraków, małopolskie","Osiedle Piastów, Mistrzejowice, Kraków, województwo małopolskie, Polska",50.1003776,20.02101742976312
"Zielone Rybitwy, Rybitwy, Podgórze, Kraków, małopolskie","Zielone Rybitwy, Rybitwy, Podgórze, Kraków, małopolskie","Park Zielone Serce Podgórza, Rybitwy, Podgórze, Kraków, województwo małopolskie, 30-738, Polska",50.045552,20.0320034
"Ignacego Grabczaka, Górka Narodowa, Prądnik Biały, Kraków, małopolskie","Ignacego Grabczaka, Górka Narodowa, Prądnik Biały, Kraków, małopolskie","Ignacego Grabczaka, Górka Narodowa, Prądnik Biały, Kraków, województwo małopolskie, 31-236, Polska",50.0975107,19.9661395
"ul.Niebyła, Lubocza, Wzgórza Krzesławickie, Kraków, małopolskie","ul.Niebyła, Lubocza, Wzgórza Krzesławickie, Kraków, małopolskie","Niebyła, Wróblowice, Swoszowice, Kraków, województwo małopolskie, 30-615, Polska",49.9878651,19.9614639
"Czarodziejska, Dębniki, Kraków, małopolskie","Czarodziejska, Dębniki, Kraków, małopolskie","Czarodziejska, Osiedle Robotnicze, Dębniki, Kraków, województwo małopolskie, 30-328, Polska",50.049417,19.9140087
"Gwieździsta, Dzielnica XIII Podgórze, Kraków, małopolskie","Gwieździsta, Dzielnica XIII Podgórze, Kraków, małopolskie","Gwieździsta, Osiedle Szuwarowa, Ruczaj, Dębniki, Kraków, województwo małopolskie, 30-382, Polska",50.0169747,19.9043787
"Kuźnicy Kołłątajowskiej, Prądnik Biały, Kraków, małopolskie","Kuźnicy Kołłątajowskiej, Prądnik Biały, Kraków, małopolskie","Kuźnicy Kołłątajowskiej, Górka Narodowa, Prądnik Biały, Kraków, województwo małopolskie, 31-220, Polska",50.0981141,19.9599517
"Aleja Jana Pawła II, Kraków, małopolskie","Aleja Jana Pawła II, Kraków, małopolskie","Aleja Jana Pawła II, Czyżyny, Kraków, województwo małopolskie, 31-581, Polska",50.0737086,20.0139143
"Bieńczyce, Kraków, małopolskie","Bieńczyce, Kraków, małopolskie","Bieńczyce, Kraków, województwo małopolskie, Polska",50.08605125,20.02922626218556
"Kawiory, Czarna Wieś, Krowodrza, Kraków, małopolskie","Kawiory, Czarna Wieś, Krowodrza, Kraków, małopolskie","Kawiory, Cichy Kącik, Czarna Wieś, Krowodrza, Kraków, województwo małopolskie, 30-055, Polska",50.0675303,19.9138343
"Na Błonie 106, Bronowice, Bronowice, Kraków, małopolskie","Na Błonie 106, Bronowice, Bronowice, Kraków, małopolskie","106, Na Błonie, Osiedle Widok-Zarzecze, Bronowice, Kraków, województwo małopolskie, 30-147, Polska",50.0724475,19.87690629372233
"Portowa, Zabłocie, Kraków, małopolskie","Portowa, Zabłocie, Kraków, małopolskie","Portowa, Zabłocie, Podgórze, Kraków, województwo małopolskie, 30-709, Polska",50.0502962,19.9800843
"Nuszkiewicza, Kraków, małopolskie","Nuszkiewicza, Kraków, małopolskie","Majora Ryszarda Nuszkiewicza, Prądnik Czerwony, Kraków, województwo małopolskie, 31-423, Polska",50.0900018,19.9633695
"Rydlówka ⭐️ obok tramwaj, Stare Podgórze, Podgórze, Kraków, małopolskie","Rydlówka ⭐️ obok tramwaj, Stare Podgórze, Podgórze, Kraków, małopolskie","Rydlówka, 28, Włodzimierza Tetmajera, Bronowice Małe, Bronowice, Kraków, województwo małopolskie, 31-398, Polska",50.08784005,19.87805496140262
"28 Lipca 1943 1943, Wola Justowska, Zwierzyniec, Kraków, małopolskie","28 Lipca 1943 1943, Wola Justowska, Zwierzyniec, Kraków, małopolskie","28 Lipca 1943, Wola Justowska, Zwierzyniec, Kraków, województwo małopolskie, 30-233, Polska",50.0627097,19.8720018
"Gurgacza – 19, Księdza Władysława Gurgacza, Grzegórzki, Grzegórzki, Kraków, małopolskie","Gurgacza – 19, Księdza Władysława Gurgacza, Grzegórzki, Grzegórzki, Kraków, małopolskie","Księdza Władysława Gurgacza, Grzegórzki, Kraków, województwo małopolskie, 31-537, Polska",50.0577347,19.9498574
"Rogatka, Przedmieście Warszawskie, Stare Miasto, Kraków, małopolskie","Rogatka, Przedmieście Warszawskie, Stare Miasto, Kraków, małopolskie","Rogatka, Przedmieście Warszawskie, Stare Miasto, Kraków, województwo małopolskie, 30-962, Polska",50.0795208,19.9476816
"Zdrowa, Kraków, małopolskie","Zdrowa, Kraków, małopolskie","Zdrowa, Żabiniec, Prądnik Biały, Kraków, województwo małopolskie, 31-200, Polska",50.0879753,19.9455547
"Adama Marczyńskiego, Górka Narodowa, Prądnik Biały, Kraków, małopolskie","Adama Marczyńskiego, Górka Narodowa, Prądnik Biały, Kraków, małopolskie","Adama Marczyńskiego, Górka Narodowa, Prądnik Biały, Kraków, województwo małopolskie, 31-220, Polska",50.0997859,19.9582626
"Balicka 14b, Bronowice Małe, Kraków, małopolskie","Balicka 14b, Bronowice Małe, Kraków, małopolskie","PKO BP, 14b, Balicka, Bronowice, Kraków, województwo małopolskie, 30-149, Polska",50.081207,19.8842353
"Borkowska, Dębniki, Kraków, małopolskie","Borkowska, Dębniki, Kraków, małopolskie","Borkowska, Osiedle Za Fortem, Kliny, Swoszowice, Kraków, województwo małopolskie, 30-438, Polska",50.0040984,19.9058222
"Zbożowa, Krowodrza, Kraków, małopolskie","Zbożowa, Krowodrza, Kraków, małopolskie","Zbożowa, Nowy Kleparz, Krowodrza, Kraków, województwo małopolskie, 30-002, Polska",50.0786614,19.9369787
"Sucharskiego, Bieżanów, Kraków, małopolskie","Sucharskiego, Bieżanów, Kraków, małopolskie","Majora Henryka Sucharskiego, Gaj, Bieżanów, Bieżanów-Prokocim, Kraków, województwo małopolskie, 30-898, Polska",50.0161451,20.0554774
"Dajwór, Kazimierz, Stare Miasto, Kraków, małopolskie","Dajwór, Kazimierz, Stare Miasto, Kraków, małopolskie","Dajwór, Kazimierz, Stare Miasto, Kraków, województwo małopolskie, 31-037, Polska",50.0533245,19.9485352
"Felicjanek, Stare Miasto, Kraków, małopolskie","Felicjanek, Stare Miasto, Kraków, małopolskie","Felicjanek, Nowy Świat, Stare Miasto, Kraków, województwo małopolskie, 31-105, Polska",50.0567884,19.9295432
"Krowoderskich Zuchów, Krowodrza Górka, Kraków, małopolskie","Krowoderskich Zuchów, Krowodrza Górka, Kraków, małopolskie","Krowoderskich Zuchów, Krowodrza Górka, Prądnik Biały, Kraków, województwo małopolskie, 31-271, Polska",50.0838836,19.930691
"Kordeckiego, Kazimierz, Kraków, małopolskie","Kordeckiego, Kazimierz, Kraków, małopolskie","Augustyna Kordeckiego, Kazimierz, Stare Miasto, Kraków, województwo małopolskie, 31-071, Polska",50.0496422,19.9376168
"Bochenka, Wola Duchacka, Kraków, małopolskie","Bochenka, Wola Duchacka, Kraków, małopolskie","Bochenka, Adama Bochenka, Podlesie, Piaski Wielkie, Podgórze Duchackie, Kraków, województwo małopolskie, 30-691, Polska",50.0130894,19.977710891141733
"Kąpielowa, Jugowice, Swoszowice, Kraków, małopolskie","Kąpielowa, Jugowice, Swoszowice, Kraków, małopolskie","Kąpielowa, Jugowice, Swoszowice, Kraków, województwo małopolskie, 30-434, Polska",49.9970763,19.9258273
"Płaszów, Podgórze, Kraków, małopolskie","Płaszów, Podgórze, Kraków, małopolskie","Płaszów, Podgórze, Kraków, województwo małopolskie, Polska",50.0399798,19.9926237
"Akacjowa, Prądnik Czerwony, Kraków, małopolskie","Akacjowa, Prądnik Czerwony, Kraków, małopolskie","Akacjowa, Ugorek, Rakowice, Prądnik Czerwony, Kraków, województwo małopolskie, 31-460, Polska",50.0820475,19.979335
"Puszkarska, Wola Duchacka, Podgórze Duchackie, Kraków, małopolskie","Puszkarska, Wola Duchacka, Podgórze Duchackie, Kraków, małopolskie","Puszkarska, Wola Duchacka, Podgórze, Podgórze Duchackie, Kraków, województwo małopolskie, 30-524, Polska",50.0311786,19.9480084
"Stanisława Stojałowskiego 37, Kurdwanów, Podgórze Duchackie, Kraków, małopolskie","Stanisława Stojałowskiego 37, Kurdwanów, Podgórze Duchackie, Kraków, małopolskie","37, Stanisława Stojałowskiego, Osiedle ""Kurdwanów Nowy"", Kurdwanów, Podgórze Duchackie, Kraków, województwo małopolskie, 30-614, Polska",50.00591465,19.956315618581165
"Fredry, Łagiewniki, Kraków, małopolskie","Fredry, Łagiewniki, Kraków, małopolskie","Aleksandra Fredry, Łagiewniki, Łagiewniki-Borek Fałęcki, Kraków, województwo małopolskie, 30-605, Polska",50.0241428,19.9421469
"Cienista 92, Bieńczyce, Bieńczyce, Kraków, małopolskie","Cienista 92, Bieńczyce, Bieńczyce, Kraków, małopolskie","92, Cienista, Osiedle Przy Arce, Bieńczyce, Kraków, województwo małopolskie, 31-831, Polska",50.0862394,20.029883152070383
"Nowy Świat, Stare Miasto, Kraków, małopolskie","Nowy Świat, Stare Miasto, Kraków, małopolskie","Nowy Świat, Stare Miasto, Kraków, województwo małopolskie, Polska",50.0576595,19.932423
"Palacha, Azory, Kraków, małopolskie","Palacha, Azory, Kraków, małopolskie","Jana Palacha, Azory, Prądnik Biały, Kraków, województwo małopolskie, 31-325, Polska",50.0894373,19.9179539
"Wysłouchów 46, Podgórze Duchackie, Kraków, małopolskie","Wysłouchów 46, Podgórze Duchackie, Kraków, małopolskie","46, Marii i Bolesława Wysłouchów, Osiedle ""Kurdwanów Nowy"", Kurdwanów, Podgórze Duchackie, Kraków, województwo małopolskie, 30-611, Polska",50.007088,19.96253210902092
"Bociana, Górka Narodowa, Kraków, małopolskie","Bociana, Górka Narodowa, Kraków, małopolskie","Bociana, Prądnik Biały, Kraków, województwo małopolskie, 31-232, Polska",50.0928723,19.9562624
"Floriańska, Stare Miasto, Stare Miasto, Kraków, małopolskie","Floriańska, Stare Miasto, Stare Miasto, Kraków, małopolskie","Floriańska, Stare Miasto, Kraków, województwo małopolskie, 31-019, Polska",50.0649001,19.9413698
"Zygmuntowska, Azory, Prądnik Biały, Kraków, małopolskie","Zygmuntowska, Azory, Prądnik Biały, Kraków, małopolskie","Zygmuntowska, Osiedle Azory, Prądnik Biały, Kraków, województwo małopolskie, 31-314, Polska",50.0855556,19.9075636
"prof. Michała Bobrzyńskiego, Ruczaj, Dębniki, Kraków, małopolskie","prof. Michała Bobrzyńskiego, Ruczaj, Dębniki, Kraków, małopolskie","Profesora Michała Bobrzyńskiego, Ruczaj, Dębniki, Kraków, województwo małopolskie, 30-392, Polska",50.0177969,19.8915813
"Wielicka, Dzielnica XII Bieżanów-Prokocim, Kraków, małopolskie","Wielicka, Dzielnica XII Bieżanów-Prokocim, Kraków, małopolskie","Wielicka, Szutry, Prokocim, Bieżanów-Prokocim, Kraków, województwo małopolskie, 30-804, Polska",50.0240909,19.9794646
"Jana Kantego Federowicza, Skotniki, Dębniki, Kraków, małopolskie","Jana Kantego Federowicza, Skotniki, Dębniki, Kraków, małopolskie","Jana Kantego Federowicza, Wodka, Skotniki, Dębniki, Kraków, województwo małopolskie, 30-369, Polska",50.0130679,19.8836852
"Lilii Wenedy, Bieżanów-Prokocim, Kraków, małopolskie","Lilii Wenedy, Bieżanów-Prokocim, Kraków, małopolskie","Lilli Wenedy Park, Bieżanów-Prokocim, Kraków, województwo małopolskie, Polska",50.0215116,20.00546601152816
"Przyjaźni Polsko-Węgierskiej, Bonarka, Kraków, małopolskie","Przyjaźni Polsko-Węgierskiej, Bonarka, Kraków, małopolskie","Przyjaźni Polsko-Węgierskiej, Wola Duchacka, Podgórze Duchackie, Kraków, województwo małopolskie, 30-605, Polska",50.0243743,19.9460158
"Naukowców, Dzielnica VI Bronowice, Kraków, małopolskie","Naukowców, Dzielnica VI Bronowice, Kraków, małopolskie","Naukowców, Bronowice Małe, Bronowice, Kraków, województwo małopolskie, 31-356, Polska",50.0842714,19.8845615
"Żelazna, Kraków, małopolskie","Żelazna, Kraków, małopolskie","Żelazna, Przedmieście Warszawskie, Stare Miasto, Kraków, województwo małopolskie, 31-404, Polska",50.0745345,19.9464297
"Puszkarska, Podgórze Duchackie, Kraków, małopolskie","Puszkarska, Podgórze Duchackie, Kraków, małopolskie","Puszkarska, Wola Duchacka, Podgórze, Podgórze Duchackie, Kraków, województwo małopolskie, 30-524, Polska",50.0311786,19.9480084
"Radzikowskiego, Kraków, małopolskie","Radzikowskiego, Kraków, małopolskie","Walerego Eljasza-Radzikowskiego, Azory, Prądnik Biały, Kraków, województwo małopolskie, 31-307, Polska",50.0823872,19.9154562
"Stwosza, Śródmieście, Kraków, małopolskie","Stwosza, Kraków, małopolskie","Ołtarz Wita Stwosza, Plac Mariacki, Stare Miasto, Kraków, województwo małopolskie, 31-041, Polska",50.0616386,19.9399988
"Urzędnicza, Nowa Wieś, Krowodrza, Kraków, małopolskie","Urzędnicza, Nowa Wieś, Krowodrza, Kraków, małopolskie","Urzędnicza, Nowa Wieś, Krowodrza, Kraków, województwo małopolskie, 30-074, Polska",50.0722013,19.9198137
"Na Błonie, Dzielnica VI Bronowice, Kraków, małopolskie","Na Błonie, Dzielnica VI Bronowice, Kraków, małopolskie","Na Błonie, Osiedle Widok-Zarzecze, Bronowice, Kraków, województwo małopolskie, 30-146, Polska",50.0722758,19.8777515
"Kordiana/201, Kurdwanów, Podgórze Duchackie, Kraków, małopolskie","Kordiana/201, Kurdwanów, Podgórze Duchackie, Kraków, małopolskie","Kordiana, Osiedle ""Kurdwanów Nowy"", Kurdwanów, Podgórze Duchackie, Kraków, województwo małopolskie, 30-653, Polska",50.0099957,19.9619085
"Juliusza Lea, Krowodrza, Krowodrza, Kraków, małopolskie","Juliusza Lea, Krowodrza, Krowodrza, Kraków, małopolskie","Juliusza Lea, Łobzów, Krowodrza, Kraków, województwo małopolskie, 30-070, Polska",50.0723293,19.9050999
"Zbożowa, Krowodrza, Krowodrza, Kraków, małopolskie","Zbożowa, Krowodrza, Krowodrza, Kraków, małopolskie","Zbożowa, Nowy Kleparz, Krowodrza, Kraków, województwo małopolskie, 30-002, Polska",50.0786614,19.9369787
"Senatorska, Zwierzyniec, Zwierzyniec, Kraków, małopolskie","Senatorska, Zwierzyniec, Zwierzyniec, Kraków, małopolskie","Senatorska, Półwsie Zwierzynieckie, Zwierzyniec, Kraków, województwo małopolskie, 30-106, Polska",50.0542036,19.9187398
"Wygoda 13, Wawel, Kraków, małopolskie","Wygoda 13, Wawel, Kraków, małopolskie","13, Wygoda, Nowy Świat, Stare Miasto, Kraków, województwo małopolskie, 31-106, Polska",50.0575333,19.9272632
"Telimeny, Prokocim, Kraków, małopolskie","Telimeny, Prokocim, Kraków, małopolskie","Telimeny, Osiedle Nowy Bieżanów-Północ, Bieżanów, Bieżanów-Prokocim, Kraków, województwo małopolskie, 30-838, Polska",50.0199779,20.0130963
"Witkowicka, Prądnik Biały, Kraków, małopolskie","Witkowicka, Prądnik Biały, Kraków, małopolskie","Witkowicka, Witkowice-Górka Narodowa Zachód, Witkowice, Prądnik Biały, Kraków, województwo małopolskie, 31-235, Polska",50.1083934,19.9463968
"Tetmajera 12/23, Bronowice Małe, Kraków, małopolskie","Tetmajera 12/23, Bronowice Małe, Kraków, małopolskie","Włodzimierza Tetmajera, Bronowice Małe, Bronowice, Kraków, województwo małopolskie, 31-080, Polska",50.0950069,19.8663291
"Grzegórzeckiej, Grzegórzki, Grzegórzki, Kraków, małopolskie","Grzegórzeckiej, Grzegórzki, Grzegórzki, Kraków, małopolskie","Grzegórzecka, Wesoła, Grzegórzki, Kraków, województwo małopolskie, 31-539, Polska",50.0578259,19.9583506
"Smocza, Stradom, Stare Miasto, Kraków, małopolskie","Smocza, Stradom, Stare Miasto, Kraków, małopolskie","Smocza, Stradom, Stare Miasto, Kraków, województwo małopolskie, 31-069, Polska",50.0523951,19.9351306
"Filarecka, Krowodrza, Kraków, małopolskie","Filarecka, Krowodrza, Kraków, małopolskie","Filarecka, Półwsie Zwierzynieckie, Zwierzyniec, Kraków, województwo małopolskie, 30-109, Polska",50.0567172,19.9194043
"Marszałka Józefa Piłsudskiego, Czarna Wieś, Krowodrza, Kraków, małopolskie","Marszałka Józefa Piłsudskiego, Czarna Wieś, Krowodrza, Kraków, małopolskie","Marszałka Józefa Piłsudskiego, Czarna Wieś, Krowodrza, Kraków, województwo małopolskie, 31-111, Polska",50.0593302,19.9250701
"Podłęska, Bieżanów Nowy, Kraków, małopolskie","Podłęska, Bieżanów Nowy, Kraków, małopolskie","Podłęska, Bieżanów, Bieżanów-Prokocim, Kraków, województwo małopolskie, 30-865, Polska",50.0087167,20.0131964
"Józefińska, Stare Podgórze, Kraków, małopolskie","Józefińska, Stare Podgórze, Kraków, małopolskie","Józefińska, Stare Podgórze, Podgórze, Kraków, województwo małopolskie, 30-548, Polska",50.0450196,19.9567307
"Zapolskiej, Dzielnica VI Bronowice, Kraków, małopolskie","Zapolskiej, Dzielnica VI Bronowice, Kraków, małopolskie","Gabrieli Zapolskiej, Bronowice, Kraków, województwo małopolskie, 30-126, Polska",50.0766946,19.8980642
"Górników, Kraków, małopolskie","Górników, Kraków, małopolskie","Górników, Stara Wieś, Prokocim, Bieżanów-Prokocim, Kraków, województwo małopolskie, 30-819, Polska",50.0229758,19.9952938
"Piotra Stachiewicza, Azory, Prądnik Biały, Kraków, małopolskie","Piotra Stachiewicza, Azory, Prądnik Biały, Kraków, małopolskie","Piotra Stachiewicza, Azory, Prądnik Biały, Kraków, województwo małopolskie, 31-328, Polska",50.0852974,19.9164193
"Prochowej, ul. Prochowa 2, Grzegórzki, Grzegórzki, Kraków, małopolskie","Prochowej, ul. Prochowa 2, Grzegórzki, Grzegórzki, Kraków, małopolskie","Prochowa, Grzegórzki, Kraków, województwo małopolskie, 31-540, Polska",50.0562222,19.9563675
"Wrocławska, Krowodrza, Krowodrza, Kraków, małopolskie","Wrocławska, Krowodrza, Krowodrza, Kraków, małopolskie","Wrocławska, Łobzów, Krowodrza, Kraków, województwo małopolskie, 31-307, Polska",50.081544,19.9161823
"Zielińska, Prądnik Biały, Prądnik Biały, Kraków, małopolskie","Zielińska, Prądnik Biały, Prądnik Biały, Kraków, małopolskie","Zielińska, Prądnik Biały, Kraków, województwo małopolskie, 31-233, Polska",50.0954696,19.9321827
"Aleja Jana Pawła II, Rakowice, Prądnik Czerwony, Kraków, małopolskie","Aleja Jana Pawła II, Rakowice, Prądnik Czerwony, Kraków, małopolskie","Aleja Jana Pawła II, Ugorek, Rakowice, Prądnik Czerwony, Kraków, województwo małopolskie, 31-446, Polska",50.0729408,19.9852689
"Gliniana -balkon, Płaszów, Podgórze, Kraków, małopolskie","Gliniana -balkon, Płaszów, Podgórze, Kraków, małopolskie","Gliniana, Rogatka, Płaszów, Podgórze, Kraków, województwo małopolskie, 30-725, Polska",50.0356626,19.9950198
"Podskale, Podgórze, Kraków, małopolskie","Podskale, Podgórze, Kraków, małopolskie","Podskale, Stare Podgórze, Podgórze, Kraków, województwo małopolskie, 30-522, Polska",50.0378899,19.9420089
"Rakowicka 6, Wesoła Wschód, Grzegórzki, Kraków, małopolskie","Rakowicka 6, Wesoła Wschód, Grzegórzki, Kraków, małopolskie","Rakowicka Residence, 6, Rakowicka, Wesoła II, Grzegórzki, Kraków, województwo małopolskie, 31-503, Polska",50.0657064,19.9515091
"Bronowicka, Dzielnica VI Bronowice, Kraków, małopolskie","Bronowicka, Dzielnica VI Bronowice, Kraków, małopolskie","Bronowicka, Bronowice, Kraków, województwo małopolskie, 30-124, Polska",50.0759556,19.90571
"Wolności, Kurdwanów, Kraków, małopolskie","Wolności, Kraków, małopolskie","Wolności, Wola Duchacka, Podgórze Duchackie, Kraków, województwo małopolskie, 30-661, Polska",50.0166619,19.9695168
"Szewska, Stare Miasto, Stare Miasto, Kraków, małopolskie","Szewska, Stare Miasto, Stare Miasto, Kraków, małopolskie","Szewska, Stare Miasto, Kraków, województwo małopolskie, 31-133, Polska",50.0634063,19.9329801
"Wlotowa, Prokocim, Kraków, małopolskie","Wlotowa, Prokocim, Kraków, małopolskie","Wlotowa 04, Wielicka, Osiedle Medyków, Prokocim, Bieżanów-Prokocim, Kraków, województwo małopolskie, 30-668, Polska",50.01908875,19.988453597579472
"Krowoderskiej, Piasek, Stare Miasto, Kraków, małopolskie","Krowoderskiej, Piasek, Stare Miasto, Kraków, małopolskie","Krowoderska, Kleparz, Stare Miasto, Kraków, województwo małopolskie, 31-142, Polska",50.0699442,19.9357048
"Rydlówka, Bronowice Małe, Bronowice, Kraków, małopolskie","Rydlówka, Bronowice Małe, Bronowice, Kraków, małopolskie","Rydlówka, 28, Włodzimierza Tetmajera, Bronowice Małe, Bronowice, Kraków, województwo małopolskie, 31-398, Polska",50.08784005,19.87805496140262
"Czeczów, Kraków, małopolskie","Czeczów, Kraków, małopolskie","Henryka i Karola Czeczów, Złocień, Bieżanów-Prokocim, Kraków, województwo małopolskie, 30-798, Polska",50.021345,20.0572993
"Sebastiana, Kraków, małopolskie","Sebastiana, Kraków, małopolskie","Sebastiana Klonowica, Wola Duchacka, Podgórze Duchackie, Kraków, województwo małopolskie, 30-654, Polska",50.0202294,19.9561864
"Zakrzowiecka, Zakrzówek, Kraków, małopolskie","Zakrzowiecka, Zakrzówek, Kraków, małopolskie","Zakrzowiecka, Pychowice, Dębniki, Kraków, województwo małopolskie, 30-387, Polska",50.0300421,19.8963808
"św. Sebastiana, Stradom, Stare Miasto, Kraków, małopolskie","św. Sebastiana, Stradom, Stare Miasto, Kraków, małopolskie","Świętego Sebastiana, Stradom, Stare Miasto, Kraków, województwo małopolskie, 31-049, Polska",50.0555592,19.9423212
"Emaus, Las Wolski, Zwierzyniec, Kraków, małopolskie","Emaus, Las Wolski, Zwierzyniec, Kraków, małopolskie","Emaus, Zwierzyniec, Kraków, województwo małopolskie, 30-213, Polska",50.0606141,19.8984091
"Stefana Otwinowskiego, Osiedle Oficerskie, Grzegórzki, Kraków, małopolskie","Stefana Otwinowskiego, Osiedle Oficerskie, Grzegórzki, Kraków, małopolskie","Stefana Otwinowskiego, Osiedle Oficerskie, Grzegórzki, Kraków, województwo małopolskie, 31-431, Polska",50.07822,19.9611863
"Miechowity, Prądnik Czerwony, Kraków, małopolskie","Miechowity, Prądnik Czerwony, Kraków, małopolskie","Macieja Miechowity, Olsza II, Olsza, Prądnik Czerwony, Kraków, województwo małopolskie, 31-471, Polska",50.0831615,19.9655351
"Św. Tomasza 92, Stare Miasto, Stare Miasto, Kraków, małopolskie","Św. Tomasza 92, Stare Miasto, Stare Miasto, Kraków, małopolskie","Świętego Tomasza, Stare Miasto, Kraków, województwo małopolskie, 31-017, Polska",50.0628588,19.9398225
"Telimeny 19, Bieżanów, Kraków, małopolskie","Telimeny 19, Bieżanów, Kraków, małopolskie","19, Telimeny, Osiedle Nowy Bieżanów-Północ, Bieżanów, Bieżanów-Prokocim, Kraków, województwo małopolskie, 30-838, Polska",50.0181198,20.01430995
"Retoryka, Wawel, Kraków, małopolskie","Retoryka, Wawel, Kraków, małopolskie","Retoryka, Nowy Świat, Stare Miasto, Kraków, województwo małopolskie, 31-107, Polska",50.0580305,19.9286712
"Kobierzyńska, Kraków, małopolskie","Kobierzyńska, Kraków, małopolskie","Kobierzyńska, Osiedle Ruczaj-Zaborze, Ruczaj, Dębniki, Kraków, województwo małopolskie, 30-358, Polska",50.0284004,19.9155572
"Chmieleniec, Podgórze, Kraków, małopolskie","Chmieleniec, Podgórze, Kraków, małopolskie","Chmieleniec, Osiedle Szuwarowa, Ruczaj, Dębniki, Kraków, województwo małopolskie, 30-382, Polska",50.0190472,19.9006675
"Zygmunta Krasińskiego /JUBILAT, al. Zygmunta Krasińskiego, Zwierzyniec, Zwierzyniec, Kraków, małopolskie","Zygmunta Krasińskiego /JUBILAT, al. Zygmunta Krasińskiego, Zwierzyniec, Zwierzyniec, Kraków, małopolskie","Aleja Zygmunta Krasińskiego, Półwsie Zwierzynieckie, Zwierzyniec, Kraków, województwo małopolskie, 31-111, Polska",50.0591644,19.9249324
"os. Bohaterów Września 84, Mistrzejowice, Mistrzejowice, Kraków, małopolskie","os. Bohaterów Września 84, Mistrzejowice, Mistrzejowice, Kraków, małopolskie","84, Osiedle Bohaterów Września, Mistrzejowice, Kraków, województwo małopolskie, 31-621, Polska",50.10428245,20.01003597267017
"Żelazna, Śródmieście, Kraków, małopolskie","Żelazna, Śródmieście, Kraków, małopolskie","Żelazna, Przedmieście Warszawskie, Stare Miasto, Kraków, województwo małopolskie, 31-404, Polska",50.0745345,19.9464297
"Architektów, Wzgórza Krzesławickie, Wzgórza Krzesławickie, Kraków, małopolskie","Architektów, Wzgórza Krzesławickie, Wzgórza Krzesławickie, Kraków, małopolskie","Architektów, Wzgórza Krzesławickie, Kraków, województwo małopolskie, 31-722, Polska",50.0961221,20.0630892
"os. Piastów 63f, Mistrzejowice, Mistrzejowice, Kraków, małopolskie","os. Piastów 63f, Mistrzejowice, Mistrzejowice, Kraków, małopolskie","63F, Osiedle Piastów, Mistrzejowice, Kraków, województwo małopolskie, 31-625, Polska",50.10335495,20.015844028814183
"Wrocławska 38, Krowodrza, Krowodrza, Kraków, małopolskie","Wrocławska 38, Krowodrza, Krowodrza, Kraków, małopolskie","Kalprodus, 38, Wrocławska, Nowy Kleparz, Krowodrza, Kraków, województwo małopolskie, 30-011, Polska",50.0771994,19.9259388
"Krygowskiego, Kliny, Kraków, małopolskie","Krygowskiego, Kliny, Kraków, małopolskie","Władysława Krygowskiego, Osiedle Za Fortem, Kliny, Swoszowice, Kraków, województwo małopolskie, 30-446, Polska",50.0018126,19.9017639
"Maciejkowa, Prądnik Biały, Kraków, małopolskie","Maciejkowa, Prądnik Biały, Kraków, małopolskie","Maciejkowa, Budzyń, Tonie, Prądnik Biały, Kraków, województwo małopolskie, 31-336, Polska",50.107243,19.8960084
"Bunscha, Ruczaj, Kraków, małopolskie","Bunscha, Ruczaj, Kraków, małopolskie","Karola Bunscha, Ruczaj, Dębniki, Kraków, województwo małopolskie, 30-392, Polska",50.017439,19.8893313
"Józefińska. Podgórze. Nowa cena, Stare Podgórze, Podgórze, Kraków, małopolskie","Józefińska. Podgórze. Nowa cena, Stare Podgórze, Podgórze, Kraków, małopolskie","Józefińska, Stare Podgórze, Podgórze, Kraków, województwo małopolskie, 30-548, Polska",50.0450196,19.9567307
"Bagrowa, Podgórze, Kraków, małopolskie","Bagrowa, Podgórze, Kraków, małopolskie","Bagrowa, Rogatka, Płaszów, Podgórze, Kraków, województwo małopolskie, 30-733, Polska",50.0383975,20.0006013
"plac Wolnica, Kazimierz, Stare Miasto, Kraków, małopolskie","plac Wolnica, Kazimierz, Stare Miasto, Kraków, małopolskie","Plac Wolnica, Kazimierz, Stare Miasto, Kraków, województwo małopolskie, 31-062, Polska",50.04878925,19.94411589466289
"Litewska, Krowodrza, Krowodrza, Kraków, małopolskie","Litewska, Krowodrza, Krowodrza, Kraków, małopolskie","Litewska, Nowy Kleparz, Krowodrza, Kraków, województwo małopolskie, 30-019, Polska",50.0763999,19.9261022
"Łobzowska, Stare Miasto, Kraków, małopolskie","Łobzowska, Stare Miasto, Kraków, małopolskie","Łobzowska, Piasek, Stare Miasto, Kraków, województwo małopolskie, 30-036, Polska",50.0706111,19.931853
"Zakątek, Krowodrza, Kraków, małopolskie","Zakątek, Krowodrza, Kraków, małopolskie","Zakątek, Łobzów, Krowodrza, Kraków, województwo małopolskie, 30-076, Polska",50.0757497,19.914697
"Piastowska, Krowodrza, Kraków, małopolskie","Piastowska, Krowodrza, Kraków, małopolskie","Piastowska, Łobzów, Krowodrza, Kraków, województwo małopolskie, 30-070, Polska",50.0728154,19.9051552
"Lea, Bronowice Małe, Kraków, małopolskie","Lea, Bronowice Małe, Kraków, małopolskie","Polana Juliusza Lea, Las Wolski, Zwierzyniec, Kraków, województwo małopolskie, Polska",50.0523186,19.85288239875174
"Osiedle Hutnicze, Nowa Huta, Kraków, małopolskie","Osiedle Hutnicze, Nowa Huta, Kraków, małopolskie","Osiedle Hutnicze, Nowa Huta, Kraków, województwo małopolskie, Polska",50.0727517,20.0454692
"Karłowicza, Czarna Wieś, Kraków, małopolskie","Karłowicza, Czarna Wieś, Kraków, małopolskie","Mieczysława Karłowicza, Nowa Wieś, Krowodrza, Kraków, województwo małopolskie, 30-047, Polska",50.0678844,19.9217352
"Kurczaba BEZPOŚREDNIO, Prokocim, Bieżanów-Prokocim, Kraków, małopolskie","Kurczaba BEZPOŚREDNIO, Prokocim, Bieżanów-Prokocim, Kraków, małopolskie","Jana Kurczaba, Nowy Prokocim, Prokocim, Bieżanów-Prokocim, Kraków, województwo małopolskie, 30-868, Polska",50.0137338,20.0074091
"Wicherkiewicza, Swoszowice, Kraków, małopolskie","Wicherkiewicza, Swoszowice, Kraków, małopolskie","Profesora Bolesława Wiktora Wicherkiewicza, Kliny Zacisze, Kliny, Swoszowice, Kraków, województwo małopolskie, 30-389, Polska",49.9996656,19.8970292
"Rzeźnicza 3, Grzegórzki, Kraków, małopolskie","Rzeźnicza 3, Grzegórzki, Kraków, małopolskie","3, Rzeźnicza, Grzegórzki, Kraków, województwo małopolskie, 31-540, Polska",50.0571011,19.9566847
"Totus Tuus, Białe Morza, Łagiewniki-Borek Fałęcki, Kraków, małopolskie","Totus Tuus, Białe Morza, Łagiewniki-Borek Fałęcki, Kraków, małopolskie","Totus Tuus, Białe Morza, Łagiewniki-Borek Fałęcki, Kraków, województwo małopolskie, 30-608, Polska",50.0123898,19.9378801
"Sukiennicza 8, Stradom, Kraków, małopolskie","Sukiennicza 8, Stradom, Kraków, małopolskie","8, Sukiennicza, Stradom, Stare Miasto, Kraków, województwo małopolskie, 31-069, Polska",50.0512483,19.9381408
"Na Błonie, Kraków, małopolskie","Na Błonie, Kraków, małopolskie","Na Błonie, Osiedle Widok-Zarzecze, Bronowice, Kraków, województwo małopolskie, 30-146, Polska",50.0729546,19.8777465
"Wrzesińska kawalerka z antresolą, Kazimierz, Stare Miasto, Kraków, małopolskie","Wrzesińska kawalerka z antresolą, Kraków, małopolskie",,,
"Kazimierza Wielkiego, Nowa Wieś, Krowodrza, Kraków, małopolskie","Kazimierza Wielkiego, Nowa Wieś, Krowodrza, Kraków, małopolskie","Kazimierza Wielkiego, Nowa Wieś, Krowodrza, Kraków, województwo małopolskie, 30-074, Polska",50.0730499,19.9201579
"Friedleina, Krowodrza, Kraków, małopolskie","Friedleina, Krowodrza, Kraków, małopolskie","Józefa Friedleina, Nowy Kleparz, Krowodrza, Kraków, województwo małopolskie, 30-009, Polska",50.0779198,19.9319615
"Podłącze, Półwsie Zwierzynieckie, Kraków, małopolskie","Podłącze, Półwsie Zwierzynieckie, Kraków, małopolskie","Podłącze, Wola Justowska, Zwierzyniec, Kraków, województwo małopolskie, 30-218, Polska",50.0681703,19.8773761
"Koszykarska, Płaszów, Kraków, małopolskie","Koszykarska, Płaszów, Kraków, małopolskie","Koszykarska, Ogrody Płaszów, Płaszów, Podgórze, Kraków, województwo małopolskie, 30-728, Polska",50.0523838,19.989574
"os. Kalinowe, Bieńczyce, Bieńczyce, Kraków, małopolskie","os. Kalinowe, Bieńczyce, Bieńczyce, Kraków, małopolskie","Osiedle Kalinowe, Bieńczyce, Kraków, województwo małopolskie, Polska",50.091117,20.013326731946403
"Samozwaniec 33, Wzgórza Krzesławickie, Kraków, małopolskie","Samozwaniec 33, Wzgórza Krzesławickie, Kraków, małopolskie","33, Magdaleny Samozwaniec, Dłubnia, Wzgórza Krzesławickie, Kraków, województwo małopolskie, 31-711, Polska",50.0957751,20.0393939
"Szlak, Warszawskie, Kraków, małopolskie","Szlak, Warszawskie, Kraków, małopolskie","Szlak, Piasek, Stare Miasto, Kraków, województwo małopolskie, 31-161, Polska",50.0708142,19.9345154
"Cegielniana, Cegielniana, Kraków, małopolskie","Cegielniana, Cegielniana, Kraków, małopolskie","Cegielniana, Łagiewniki-Borek Fałęcki, Kraków, województwo małopolskie, 30-404, Polska",50.0278052,19.9331999
"Monte Cassino, Dębniki, Dębniki, Kraków, małopolskie","Monte Cassino, Dębniki, Dębniki, Kraków, małopolskie","Monte Cassino, Osiedle Podwawelskie, Ludwinów, Dębniki, Kraków, województwo małopolskie, 30-337, Polska",50.0480967,19.9299405
"Topografów, Olszyny, Dębniki, Kraków, małopolskie","Topografów, Olszyny, Dębniki, Kraków, małopolskie","Topografów, Dom Nad Łąkami, Olszyny, Dębniki, Kraków, województwo małopolskie, 30-399, Polska",49.9850773,19.8751118
"Zwierzyniecka, Zwierzyniec, Zwierzyniec, Kraków, małopolskie","Zwierzyniecka, Zwierzyniec, Zwierzyniec, Kraków, małopolskie","Zwierzyniecka, Półwsie Zwierzynieckie, Zwierzyniec, Kraków, województwo małopolskie, 31-106, Polska",50.0553435,19.9279807
"Wiktora Heltmana, Wola Duchacka, Podgórze Duchackie, Kraków, małopolskie","Wiktora Heltmana, Wola Duchacka, Podgórze Duchackie, Kraków, małopolskie","Wiktora Heltmana, Wola Duchacka, Podgórze Duchackie, Kraków, województwo małopolskie, 30-625, Polska",50.0254303,19.9701109
"Kazimierza Wielkiego, Krowodrza Górka, Prądnik Biały, Kraków, małopolskie","Kazimierza Wielkiego, Krowodrza Górka, Prądnik Biały, Kraków, małopolskie","Kazimierza Wielkiego, Łobzów, Krowodrza, Kraków, województwo małopolskie, 30-076, Polska",50.0750063,19.9114586
"Saska, Podgórze, Kraków, małopolskie","Saska, Podgórze, Kraków, małopolskie","Saska, Zagumnie, Płaszów, Podgórze, Kraków, województwo małopolskie, 30-720, Polska",50.0409028,19.9833069
"Łepkowskiego, Śródmieście, Kraków, małopolskie","Łepkowskiego, Śródmieście, Kraków, małopolskie","Józefa Łepkowskiego, Prądnik Czerwony, Kraków, województwo małopolskie, 31-423, Polska",50.0914719,19.962676
"Czeczów, Dzielnica XII Bieżanów-Prokocim, Kraków, małopolskie","Czeczów, Dzielnica XII Bieżanów-Prokocim, Kraków, małopolskie","Henryka i Karola Czeczów, Złocień, Bieżanów-Prokocim, Kraków, województwo małopolskie, 30-798, Polska",50.0214891,20.053783
"Kościuszki, Salwator, Kraków, małopolskie","Kościuszki, Salwator, Kraków, małopolskie","Tadeusza Kościuszki, Salwator, Zwierzyniec, Kraków, województwo małopolskie, 30-204, Polska",50.0527648,19.9160711
"os. Albertyńskie, os. Jagiellońskie, dh wanda, os. Wysokie, os. Niepodległości, Tomex, Bieńczyce, Bieńczyce, Kraków, małopolskie","os. Albertyńskie, Kraków, małopolskie","Osiedle Albertyńskie, Bieńczyce, Kraków, województwo małopolskie, Polska",50.0814309,20.0176277
"Krowoderska, Kazimierz, Stare Miasto, Kraków, małopolskie","Krowoderska, Kazimierz, Stare Miasto, Kraków, małopolskie","Krowoderska, Kleparz, Stare Miasto, Kraków, województwo małopolskie, 31-142, Polska",50.0699442,19.9357048
"Stawowa, Bronowice, Bronowice, Kraków, małopolskie","Stawowa, Bronowice, Bronowice, Kraków, małopolskie","Stawowa, Bronowice Wielkie, Prądnik Biały, Kraków, województwo małopolskie, 31-344, Polska",50.098438,19.8763138
"Mogilska / Cystersów, Grzegórzki, Kraków, małopolskie","Mogilska / Cystersów, Grzegórzki, Kraków, małopolskie","Mogilska, Rakowice, Prądnik Czerwony, Kraków, województwo małopolskie, 31-445, Polska",50.0683348,19.9793749
"św. Kingi, Stare Podgórze, Podgórze, Kraków, małopolskie","św. Kingi, Stare Podgórze, Podgórze, Kraków, małopolskie","Świętej Kingi, Stare Podgórze, Podgórze, Kraków, województwo małopolskie, 30-528, Polska",50.0437702,19.9597397
"Wielickiej/bez pośredników, ul. prof. Tadeusza Seweryna 5, Kozłówka, Bieżanów-Prokocim, Kraków, małopolskie","Wielickiej/bez pośredników, ul. prof. Tadeusza Seweryna 5, Kozłówka, Bieżanów-Prokocim, Kraków, małopolskie","Na Wielickiej, 76, Wielicka, Kabel, Podgórze, Kraków, województwo małopolskie, 30-552, Polska",50.0330235,19.9712812
"Kosocicka, Rżąka, Kraków, małopolskie","Kosocicka, Rżąka, Kraków, małopolskie","Kosocicka, Rżąka, Bieżanów-Prokocim, Kraków, województwo małopolskie, 30-865, Polska",50.0058391,20.0158653
"Hetmana Żółkiewskiego, Wesoła Wschód, Grzegórzki, Kraków, małopolskie","Hetmana Żółkiewskiego, Wesoła Wschód, Grzegórzki, Kraków, małopolskie","Hetmana Stanisława Żółkiewskiego, Wesoła, Grzegórzki, Kraków, województwo małopolskie, 31-539, Polska",50.0577378,19.9579385
"Kujawska, Nowa Wieś, Krowodrza, Kraków, małopolskie","Kujawska, Nowa Wieś, Krowodrza, Kraków, małopolskie","Kujawska, Nowa Wieś, Krowodrza, Kraków, województwo małopolskie, 30-042, Polska",50.07261,19.9227205
"Zatorska, Ludwinów, Kraków, małopolskie","Zatorska, Ludwinów, Kraków, małopolskie","Zatorska, Osiedle Podwawelskie, Ludwinów, Dębniki, Kraków, województwo małopolskie, 30-331, Polska",50.0430823,19.9384321
"Włodzimierza Tetmajera, Bronowice Małe, Bronowice, Kraków, małopolskie","Włodzimierza Tetmajera, Bronowice Małe, Bronowice, Kraków, małopolskie","Włodzimierza Tetmajera, Bronowice Małe, Bronowice, Kraków, województwo małopolskie, 31-080, Polska",50.0950069,19.8663291
"Zabłocie 27, Zabłocie, Podgórze, Kraków, małopolskie","Zabłocie 27, Zabłocie, Podgórze, Kraków, małopolskie","27, Zabłocie, Podgórze, Kraków, województwo małopolskie, 30-701, Polska",50.04988285,19.96209846570954
"Jana, Wawel, Kraków, małopolskie","Jana, Wawel, Kraków, małopolskie","Muzeum Katedralne im. Jana Pawła II, 2, Zamek Wawel, Stare Miasto, Kraków, województwo małopolskie, 31-001, Polska",50.0546591,19.9344961
"Podgórze, Kraków, małopolskie","Podgórze, Kraków, małopolskie","Podgórze, Kraków, województwo małopolskie, Polska",50.0430999,19.9529614
"Estońska, Wola Duchacka, Podgórze Duchackie, Kraków, małopolskie","Estońska, Wola Duchacka, Podgórze Duchackie, Kraków, małopolskie","Estońska, Wola Duchacka, Podgórze Duchackie, Kraków, województwo małopolskie, 30-659, Polska",50.0187176,19.965828
"Kiełkowskiego, Dzielnica XIII Podgórze, Kraków, małopolskie","Kiełkowskiego, Dzielnica XIII Podgórze, Kraków, małopolskie","Romana Kiełkowskiego, Zabłocie, Podgórze, Kraków, województwo małopolskie, 30-704, Polska",50.0460596,19.9674482
"Serbska, Wola Duchacka, Kraków, małopolskie","Serbska, Wola Duchacka, Kraków, małopolskie","Serbska, Wola Duchacka, Podgórze Duchackie, Kraków, województwo małopolskie, 30-638, Polska",50.0204553,19.9728818
"Konrada Wallenroda, Teligi, Wielicka, Bieżanowska, Prokocim, Bieżanów-Prokocim, Kraków, małopolskie","Konrada Wallenroda, Teligi, Wielicka, Bieżanowska, Prokocim, Bieżanów-Prokocim, Kraków, małopolskie","Konrada Wallenroda, Nowy Prokocim, Prokocim, Bieżanów-Prokocim, Kraków, województwo małopolskie, 30-867, Polska",50.0176748,20.0011197
"Warszauera, Stare Miasto, Kraków, małopolskie","Warszauera, Stare Miasto, Kraków, małopolskie","Jonatana Warszauera, Kazimierz, Stare Miasto, Kraków, województwo małopolskie, 31-057, Polska",50.0527273,19.9463591
"Przybyszewskiego 64d, Bronowice, Kraków, małopolskie","Przybyszewskiego 64d, Bronowice, Kraków, małopolskie","Stanisława Przybyszewskiego, Bronowice, Kraków, województwo małopolskie, 30-133, Polska",50.0716392,19.8953814
"Graniczna, Olszyny, Dębniki, Kraków, małopolskie","Graniczna, Olszyny, Dębniki, Kraków, małopolskie","Piotra Michałowskiego, Piasek, Stare Miasto, Kraków, województwo małopolskie, 31-127, Polska",50.0659979,19.9279103
"Sikorki, Łęg, Czyżyny, Kraków, małopolskie","Sikorki, Łęg, Czyżyny, Kraków, małopolskie","Sikorki, Zawsie, Łęg, Czyżyny, Kraków, województwo małopolskie, 31-588, Polska",50.0625885,20.0200767
"Sebastiana - Wykończone inwestycyjne mieszkanie, Stradom, Stare Miasto, Kraków, małopolskie","Sebastiana - Wykończone inwestycyjne mieszkanie, Stradom, Stare Miasto, Kraków, małopolskie","Sebastiana Klonowica, Wola Duchacka, Podgórze Duchackie, Kraków, województwo małopolskie, 30-654, Polska",50.0202294,19.9561864
"Brzozowa, Kazimierz, Kraków, małopolskie","Brzozowa, Kazimierz, Kraków, małopolskie","Brzozowa, Kazimierz, Stare Miasto, Kraków, województwo małopolskie, 31-039, Polska",50.0540934,19.9439961
"Rydla, Azory, Kraków, małopolskie","Rydla, Azory, Kraków, małopolskie","Lucjana Rydla, Azory, Prądnik Biały, Kraków, województwo małopolskie, 31-305, Polska",50.0828477,19.9065148
"Osiedle Kazimierzowskie, Bieńczyce, Bieńczyce, Kraków, małopolskie","Osiedle Kazimierzowskie, Bieńczyce, Bieńczyce, Kraków, małopolskie","Osiedle Kazimierzowskie, Bieńczyce, Kraków, województwo małopolskie, 31-839, Polska",50.0854878,20.0240987
"Osiedle na Stoku, Wzgórza Krzesławickie, Wzgórza Krzesławickie, Kraków, małopolskie","Osiedle na Stoku, Wzgórza Krzesławickie, Wzgórza Krzesławickie, Kraków, małopolskie","Osiedle Na Stoku, Wzgórza Krzesławickie, Kraków, województwo małopolskie, Polska",50.0961111,20.0561111
"Feliksa Konecznego, Żabiniec, Prądnik Biały, Kraków, małopolskie","Feliksa Konecznego, Żabiniec, Prądnik Biały, Kraków, małopolskie","Feliksa Konecznego, Osiedle Żabiniec, Prądnik Biały, Kraków, województwo małopolskie, 30-016, Polska",50.0842951,19.9419166
"Macieja Miechowity, Olsza, Prądnik Czerwony, Kraków, małopolskie","Macieja Miechowity, Olsza, Prądnik Czerwony, Kraków, małopolskie","Macieja Miechowity, Olsza II, Olsza, Prądnik Czerwony, Kraków, województwo małopolskie, 31-471, Polska",50.0831615,19.9655351
"Fieldorfa Nila, Krowodrza Górka, Prądnik Biały, Kraków, małopolskie","Fieldorfa Nila, Krowodrza Górka, Prądnik Biały, Kraków, małopolskie","Generała Augusta Fieldorfa-Nila, Krowodrza Górka, Prądnik Biały, Kraków, województwo małopolskie, 31-271, Polska",50.0882086,19.9322981
"Piltza, Europejskie, Kraków, małopolskie","Piltza, Europejskie, Kraków, małopolskie","Doktora Jana Piltza, Kobierzyn, Dębniki, Kraków, województwo małopolskie, 30-392, Polska",50.0128839,19.8904435
"Monte Cassino, Ludwinów, Dębniki, Kraków, małopolskie","Monte Cassino, Ludwinów, Dębniki, Kraków, małopolskie","Monte Cassino, Osiedle Podwawelskie, Ludwinów, Dębniki, Kraków, województwo małopolskie, 30-308, Polska",50.0484816,19.9313058
"Topolowa, Stare Miasto, Kraków, małopolskie","Topolowa, Stare Miasto, Kraków, małopolskie","Topolowa, Wesoła, Stare Miasto, Kraków, województwo małopolskie, 31-508, Polska",50.0673259,19.9500588
"Wallenroda, Prokocim, Kraków, małopolskie","Wallenroda, Prokocim, Kraków, małopolskie","Konrada Wallenroda, Nowy Prokocim, Prokocim, Bieżanów-Prokocim, Kraków, województwo małopolskie, 30-867, Polska",50.0176748,20.0011197
"Grabczaka, Górka Narodowa, Kraków, małopolskie","Grabczaka, Górka Narodowa, Kraków, małopolskie","Ignacego Grabczaka, Górka Narodowa, Prądnik Biały, Kraków, województwo małopolskie, 31-236, Polska",50.0975107,19.9661395
"Widok, Dąbie, Grzegórzki, Kraków, małopolskie","Widok, Dąbie, Grzegórzki, Kraków, małopolskie","Widok, Dąbie, Grzegórzki, Kraków, województwo małopolskie, 31-566, Polska",50.0573772,19.9789268
"Olszanicka, Zwierzyniec, Kraków, małopolskie","Olszanicka, Zwierzyniec, Kraków, małopolskie","Olszanicka, Olszanica, Bory Cholerzyńskie, Zwierzyniec, Kraków, gmina Liszki, powiat krakowski, województwo małopolskie, 32-060, Polska",50.0621282,19.8046529
"Rydygiera, Prokocim, Kraków, małopolskie","Rydygiera, Prokocim, Kraków, małopolskie","Ludwika Rydygiera, Rżąka, Bieżanów-Prokocim, Kraków, województwo małopolskie, 30-695, Polska",50.0060445,20.0085536
"Spółdzielców, Podgórze, Kraków, małopolskie","Spółdzielców, Podgórze, Kraków, małopolskie","Spółdzielców, Kozłówka, Bieżanów-Prokocim, Kraków, województwo małopolskie, 30-664, Polska",50.0189614,19.9809116
"Wojciecha Weissa, Azory, Prądnik Biały, Kraków, małopolskie","Wojciecha Weissa, Azory, Prądnik Biały, Kraków, małopolskie","Wojciecha Weissa, Azory, Prądnik Biały, Kraków, województwo małopolskie, 31-339, Polska",50.0862506,19.9092423
"Aleja Juliusza Słowackiego, Kleparz, Stare Miasto, Kraków, małopolskie","Aleja Juliusza Słowackiego, Kleparz, Stare Miasto, Kraków, małopolskie","Aleja Juliusza Słowackiego, Kleparz, Stare Miasto, Kraków, województwo małopolskie, 31-148, Polska",50.0735826,19.9394225
"Nowosądecka, Wola Duchacka, Podgórze Duchackie, Kraków, małopolskie","Nowosądecka, Wola Duchacka, Podgórze Duchackie, Kraków, małopolskie","Nowosądecka, Wola Duchacka, Podgórze Duchackie, Kraków, województwo małopolskie, 30-638, Polska",50.0154039,19.9707351
"Osiedle Kazimierzowskie, Kazimierzowskie, Kraków, małopolskie","Osiedle Kazimierzowskie, Kazimierzowskie, Kraków, małopolskie","Osiedle Kazimierzowskie, Bieńczyce, Kraków, województwo małopolskie, 31-839, Polska",50.0854878,20.0240987
"Półłanki, Przewóz, Podgórze, Kraków, małopolskie","Półłanki, Przewóz, Podgórze, Kraków, małopolskie","Półłanki, Przewóz, Podgórze, Kraków, województwo małopolskie, 30-740, Polska",50.0378614,20.0426109
"Kasprowicza, Oficerskie, Kraków, małopolskie","Kasprowicza, Oficerskie, Kraków, małopolskie","Jana Kasprowicza, Osiedle Oficerskie, Grzegórzki, Kraków, województwo małopolskie, 31-523, Polska",50.0682802,19.9656763
"Jerzego Szablowskiego, Bronowice, Bronowice, Kraków, małopolskie","Jerzego Szablowskiego, Bronowice, Bronowice, Kraków, małopolskie","Jerzego Szablowskiego, Osiedle Widok-Zarzecze, Bronowice, Kraków, województwo małopolskie, 30-127, Polska",50.0766632,19.8936989
"Leopolda Staffa 5, ul. Lea, al. Kijowska, ul. Nawojki, ul. Bronowicka, ul. Urzędnicza, Łobzów, Krowodrza, Kraków, małopolskie","Leopolda Staffa 5, ul. Lea, al. Kijowska, ul. Nawojki, ul. Bronowicka, ul. Urzędnicza, Łobzów, Krowodrza, Kraków, małopolskie","5, Leopolda Staffa, Łobzów, Krowodrza, Kraków, województwo małopolskie, 30-069, Polska",50.07310015,19.912381285758265
"Czerwieńskiego, Azory, Kraków, małopolskie","Czerwieńskiego, Azory, Kraków, małopolskie","Bolesława Czerwieńskiego, Azory, Prądnik Biały, Kraków, województwo małopolskie, 31-319, Polska",50.085623,19.9035541
"Nullo, Grzegórzki, Kraków, małopolskie","Nullo, Grzegórzki, Kraków, małopolskie","Pułkownika Francesco Nullo, Grzegórzki, Kraków, województwo małopolskie, 31-552, Polska",50.059886,19.9673614
"os. Kościuszkowskie, Bieńczyce, Bieńczyce, Kraków, małopolskie","os. Kościuszkowskie, Bieńczyce, Bieńczyce, Kraków, małopolskie","Osiedle Kościuszkowskie, Bieńczyce, Kraków, województwo małopolskie, Polska",50.0828417,20.0139522
"Grabowskiego, Piasek, Kraków, małopolskie","Grabowskiego, Piasek, Kraków, małopolskie","Ambrożego Grabowskiego, Piasek, Stare Miasto, Kraków, województwo małopolskie, 31-127, Polska",50.0670168,19.9276013
"Stanisława Lema, Dąbie, Grzegórzki, Kraków, małopolskie","Stanisława Lema, Dąbie, Grzegórzki, Kraków, małopolskie","Stanisława Lema, Beszcz, Łęg, Czyżyny, Kraków, województwo małopolskie, 31-564, Polska",50.064204,19.9895521
"Basztowa, Kleparz, Stare Miasto, Kraków, małopolskie","Basztowa, Kleparz, Stare Miasto, Kraków, małopolskie","Basztowa, Kleparz, Stare Miasto, Kraków, województwo małopolskie, 31-143, Polska",50.0661987,19.9403
"Fenn'a, Stare Miasto, Kraków, małopolskie","Fenn'a, Stare Miasto, Kraków, małopolskie","Sereno Fenn'a, Piasek, Stare Miasto, Kraków, województwo małopolskie, 31-134, Polska",50.0668373,19.9368989
"Magnolii, Ruczaj, Dębniki, Kraków, małopolskie","Magnolii, Ruczaj, Dębniki, Kraków, małopolskie","Magnolii, Zaborze, Ruczaj, Dębniki, Kraków, województwo małopolskie, 30-385, Polska",50.0229208,19.9136644
"Vlastimila Hofmana, Zwierzyniec, Zwierzyniec, Kraków, małopolskie","Vlastimila Hofmana, Zwierzyniec, Zwierzyniec, Kraków, małopolskie","Vlastimila Hofmana, Zwierzyniec, Kraków, województwo małopolskie, 30-210, Polska",50.0572558,19.8971469
"Wielopole/Stare Miasto/Rynek Główny, Wesoła Zachód, Stare Miasto, Kraków, małopolskie","Wielopole/Stare Miasto/Rynek Główny, Wesoła Zachód, Stare Miasto, Kraków, małopolskie","Wielopole, Kazimierz, Stare Miasto, Kraków, województwo małopolskie, 31-030, Polska",50.0581332,19.9469064
"Zakrzowiecka, Pychowice, Kraków, małopolskie","Zakrzowiecka, Pychowice, Kraków, małopolskie","Zakrzowiecka, Pychowice, Dębniki, Kraków, województwo małopolskie, 30-387, Polska",50.0300421,19.8963808
"Półłanki, Płaszów, Kraków, małopolskie","Półłanki, Płaszów, Kraków, małopolskie","Półłanki, Rybitwy, Podgórze, Kraków, województwo małopolskie, 30-740, Polska",50.0391687,20.0429923
"Adama Bochenka, Piaski Wielkie, Podgórze Duchackie, Kraków, małopolskie","Adama Bochenka, Piaski Wielkie, Podgórze Duchackie, Kraków, małopolskie","Adama Bochenka, Piaski Nowe, Piaski Wielkie, Podgórze Duchackie, Kraków, województwo małopolskie, 30-693, Polska",50.0109271,19.9742323
"Nowa Wieś, Kraków, małopolskie","Nowa Wieś, Kraków, małopolskie","Nowa Wieś, Wyciąże, Nowa Huta, Kraków, województwo małopolskie, 31-998, Polska",50.0663478,20.1676093
"Pawła z Krosna, Kobierzyn, Kraków, małopolskie","Pawła z Krosna, Kobierzyn, Kraków, małopolskie","Pawła z Krosna, Kliny Zacisze, Kliny, Swoszowice, Kraków, województwo małopolskie, 30-389, Polska",50.003994,19.8938674
"Stańczyka 10, Bronowice, Kraków, małopolskie","Stańczyka 10, Bronowice, Kraków, małopolskie","10, Stańczyka, Bronowice, Kraków, województwo małopolskie, 30-126, Polska",50.07831355,19.89318554584348
"Kwartowa, Prądnik Czerwony, Prądnik Czerwony, Kraków, małopolskie","Kwartowa, Prądnik Czerwony, Prądnik Czerwony, Kraków, małopolskie","Kwartowa, Prądnik Czerwony, Kraków, województwo małopolskie, 31-480, Polska",50.0937064,19.9820514
"Bochnaka 8, Swoszowice, Kraków, małopolskie","Bochnaka 8, Swoszowice, Kraków, małopolskie","8, Profesora Adama Bochnaka, Zalesie, Wróblowice, Swoszowice, Kraków, województwo małopolskie, 30-698, Polska",49.9844026,19.9462024
"Ułanów - trzypokojowe mieszkanie z garażem, Rakowice, Prądnik Czerwony, Kraków, małopolskie","Ułanów - trzypokojowe mieszkanie z garażem, Rakowice, Prądnik Czerwony, Kraków, małopolskie","Ułanów, Ugorek, Rakowice, Prądnik Czerwony, Kraków, województwo małopolskie, 31-446, Polska",50.0734495,19.9858129
"Pszona, Śródmieście, Kraków, małopolskie","Pszona, Śródmieście, Kraków, małopolskie","Mieczysława Pszona, Ugorek, Rakowice, Prądnik Czerwony, Kraków, województwo małopolskie, 31-460, Polska",50.0783572,19.9776202
"al. Jana Pawła II, Nowa Huta, Nowa Huta, Kraków, małopolskie","al. Jana Pawła II, Nowa Huta, Nowa Huta, Kraków, małopolskie","Aleja Jana Pawła II, Nowa Huta, Kraków, województwo małopolskie, 31-940, Polska",50.0725677,20.0252362
"Na Ustroniu, Ludwinów, Kraków, małopolskie","Na Ustroniu, Ludwinów, Kraków, małopolskie","Na Ustroniu, Osiedle Podwawelskie, Ludwinów, Dębniki, Kraków, województwo małopolskie, 31-051, Polska",50.046101,19.9317678
"Osiedle Centrum E, Centrum E, Kraków, małopolskie","Osiedle Centrum E, Centrum E, Kraków, małopolskie","Osiedle Centrum E, Nowa Huta, Kraków, województwo małopolskie, 31-934, Polska",50.0698682,20.0399341
"Głowackiego, Bronowice Małe, Kraków, małopolskie","Głowackiego, Bronowice Małe, Kraków, małopolskie","Bartosza Głowackiego, Bronowice, Kraków, województwo małopolskie, 30-084, Polska",50.0775737,19.9042255
"Gajówka, Las Wolski, Zwierzyniec, Kraków, małopolskie","Gajówka, Las Wolski, Zwierzyniec, Kraków, małopolskie","Gajówka, Przegorzały, Zwierzyniec, Kraków, województwo małopolskie, 30-250, Polska",50.0459849,19.8578545
"Miodowa, Stare Miasto, Kraków, małopolskie","Miodowa, Stare Miasto, Kraków, małopolskie","Miodowa, Kazimierz, Stare Miasto, Kraków, województwo małopolskie, 31-059, Polska",50.0517322,19.9427218
"Kurczaba, Prokocim, Kraków, małopolskie","Kurczaba, Prokocim, Kraków, małopolskie","Jana Kurczaba, Nowy Prokocim, Prokocim, Bieżanów-Prokocim, Kraków, województwo małopolskie, 30-868, Polska",50.0137338,20.0074091
"Juliusza Lea, Bronowice, Bronowice, Kraków, małopolskie","Juliusza Lea, Bronowice, Bronowice, Kraków, małopolskie","Juliusza Lea, Bronowice, Kraków, województwo małopolskie, 30-133, Polska",50.0724183,19.8986553
"Kraszewskiego, Salwator, Kraków, małopolskie","Kraszewskiego, Salwator, Kraków, małopolskie","Józefa Ignacego Kraszewskiego, Półwsie Zwierzynieckie, Zwierzyniec, Kraków, województwo małopolskie, 30-109, Polska",50.0558773,19.9190019
"Chełmska, Zwierzyniec, Kraków, małopolskie","Chełmska, Zwierzyniec, Kraków, małopolskie","Chełmska, Chełm, Zwierzyniec, Kraków, województwo małopolskie, 30-238, Polska",50.0671869,19.8462439
"Przegon, Zwierzyniec, Kraków, małopolskie","Przegon, Zwierzyniec, Kraków, małopolskie","Przegon, Salwator, Zwierzyniec, Kraków, województwo małopolskie, 30-209, Polska",50.057236,19.9043773
"os. Dywizjonu 303 46, Czyżyny, Czyżyny, Kraków, małopolskie","os. Dywizjonu 303 46, Czyżyny, Czyżyny, Kraków, małopolskie","46, Osiedle Dywizjonu 303, Czyżyny, Kraków, województwo małopolskie, 31-875, Polska",50.08263015,20.01124467321283
"Bujwida, Stare Miasto, Kraków, małopolskie","Bujwida, Stare Miasto, Kraków, małopolskie","Odona Bujwida, Wesoła II, Grzegórzki, Kraków, województwo małopolskie, 31-529, Polska",50.060879,19.9502566
"Lema, Grzegórzki, Kraków, małopolskie","Lema, Grzegórzki, Kraków, małopolskie","Ogród Doświadczeń im. Stanisława Lema, Czyżyny, Kraków, województwo małopolskie, Polska",50.06819475,19.99729633976735
"Niezapominajek, Zwierzyniec, Kraków, małopolskie","Niezapominajek, Zwierzyniec, Kraków, małopolskie","Niezapominajek, Chełm, Zwierzyniec, Kraków, województwo małopolskie, 30-239, Polska",50.068929,19.8445933
"Rydlówka, Mateczny, Kraków, małopolskie","Rydlówka, Mateczny, Kraków, małopolskie","Rydlówka, 28, Włodzimierza Tetmajera, Bronowice Małe, Bronowice, Kraków, województwo małopolskie, 31-398, Polska",50.08784005,19.87805496140262
"Bandurskiego, Grzegórzki, Kraków, małopolskie","Bandurskiego, Grzegórzki, Kraków, małopolskie","Księdza Biskupa Władysława Bandurskiego, Osiedle Oficerskie, Grzegórzki, Kraków, województwo małopolskie, 31-515, Polska",50.0698645,19.9604438
"Władysława Taklińskiego, Opatkowice, Swoszowice, Kraków, małopolskie","Władysława Taklińskiego, Opatkowice, Swoszowice, Kraków, małopolskie","Władysława Taklińskiego, Gaik, Opatkowice, Swoszowice, Kraków, województwo małopolskie, 30-499, Polska",49.9874978,19.9140804
"Nowosądecka, Podgórze Duchackie, Kraków, małopolskie","Nowosądecka, Podgórze Duchackie, Kraków, małopolskie","Nowosądecka, Wola Duchacka, Podgórze Duchackie, Kraków, województwo małopolskie, 30-638, Polska",50.0154039,19.9707351
"Kobierzyńska, Dębniki, Kraków, małopolskie","Kobierzyńska, Dębniki, Kraków, małopolskie","Kobierzyńska, Osiedle Ruczaj-Zaborze, Ruczaj, Dębniki, Kraków, województwo małopolskie, 30-358, Polska",50.0284004,19.9155572
"Chełmońskiego, Bronowice, Kraków, małopolskie","Chełmońskiego, Bronowice, Kraków, małopolskie","Józefa Chełmońskiego, Bronowice Wielkie, Prądnik Biały, Kraków, województwo małopolskie, 31-358, Polska",50.0937665,19.8996822
"Dunin-Wąsowicza, Salwator, Kraków, małopolskie","Dunin-Wąsowicza, Salwator, Kraków, małopolskie","Rotmistrza Zbigniewa Dunin-Wąsowicza, Półwsie Zwierzynieckie, Zwierzyniec, Kraków, województwo małopolskie, 30-112, Polska",50.0567692,19.92248
"Ładna, Rakowice, Prądnik Czerwony, Kraków, małopolskie","Ładna, Rakowice, Prądnik Czerwony, Kraków, małopolskie","Ładna, Rakowice, Prądnik Czerwony, Kraków, województwo małopolskie, 31-444, Polska",50.0715246,19.9780798
"Św. Marka, Stare Miasto, Stare Miasto, Kraków, małopolskie","Św. Marka, Stare Miasto, Stare Miasto, Kraków, małopolskie","Świętego Marka, Stare Miasto, Kraków, województwo małopolskie, 31-012, Polska",50.0644334,19.9375919
"Dąbie, Kraków, małopolskie","Dąbie, Kraków, małopolskie","Dąbie, Grzegórzki, Kraków, województwo małopolskie, 31-560, Polska",50.0594368,19.9791419
"Jana, Kraków, małopolskie","Jana, Kraków, małopolskie","Małopolskie Centrum Szkoleniowe ADR ""Krakus"", Jana Sobieskiego, Piasek, Stare Miasto, Kraków, województwo małopolskie, 31-136, Polska",50.0681621,19.9310571
"Ludowa, Stare Podgórze, Podgórze, Kraków, małopolskie","Ludowa, Stare Podgórze, Podgórze, Kraków, małopolskie","Ludowa, Stare Podgórze, Podgórze, Kraków, województwo małopolskie, 30-554, Polska",50.038408,19.9646505
"Osiedle Wandy 25, Nowa Huta, Kraków, małopolskie","Osiedle Wandy 25, Nowa Huta, Kraków, małopolskie","25, Osiedle Wandy, Nowa Huta, Kraków, województwo małopolskie, 31-907, Polska",50.07080945,20.05232530046886
"Jana Kiepury, Bieżanów, Bieżanów-Prokocim, Kraków, małopolskie","Jana Kiepury, Bieżanów, Bieżanów-Prokocim, Kraków, małopolskie","Jana Kiepury, Bieżanów, Bieżanów-Prokocim, Kraków, województwo małopolskie, 30-864, Polska",50.0087226,20.0242585
"Turniejowa 70, Kurdwanów, Kraków, małopolskie","Turniejowa 70, Kurdwanów, Kraków, małopolskie","70, Turniejowa, Osiedle ""Kurdwanów Nowy"", Kurdwanów, Podgórze Duchackie, Kraków, województwo małopolskie, 30-619, Polska",50.0088874,19.9587098
"Podłęska, Rżąka, Bieżanów-Prokocim, Kraków, małopolskie","Podłęska, Rżąka, Bieżanów-Prokocim, Kraków, małopolskie","Podłęska, Bieżanów, Bieżanów-Prokocim, Kraków, województwo małopolskie, 30-865, Polska",50.0087167,20.0131964
"Kurzei | 69, Mistrzejowice, Mistrzejowice, Kraków, małopolskie","Kurzei | 69, Mistrzejowice, Mistrzejowice, Kraków, małopolskie","Księdza Józefa Kurzei, Mistrzejowice, Kraków, województwo małopolskie, 31-619, Polska",50.0965798,19.9894546
"gen. Jana Karcza, Skotniki, Dębniki, Kraków, małopolskie","gen. Jana Karcza, Skotniki, Dębniki, Kraków, małopolskie","Generała Jana Karcza, Skotniki Sieczkowskie, Skotniki, Dębniki, Kraków, województwo małopolskie, 30-397, Polska",50.008951,19.863912
"Karmelicka, Piasek, Stare Miasto, Kraków, małopolskie","Karmelicka, Piasek, Stare Miasto, Kraków, małopolskie","Karmelicka, Piasek, Stare Miasto, Kraków, województwo małopolskie, 30-045, Polska",50.0688856,19.9267351
"Ważewskiego, Opatkowice, Swoszowice, Kraków, małopolskie","Ważewskiego, Opatkowice, Swoszowice, Kraków, małopolskie","Tadeusza Ważewskiego, Zakarczmie, Opatkowice, Swoszowice, Kraków, województwo małopolskie, 30-499, Polska",49.9829405,19.9050947
"Pękowicka 37, Prądnik Biały, Prądnik Biały, Kraków, małopolskie","Pękowicka 37, Prądnik Biały, Prądnik Biały, Kraków, małopolskie","37, Pękowicka, Prądnik Biały, Kraków, województwo małopolskie, 31-262, Polska",50.0964245,19.916555156533622
"Sebastiana, Stare Miasto, Kraków, małopolskie","Sebastiana, Stare Miasto, Kraków, małopolskie","Świętego Sebastiana, Stradom, Stare Miasto, Kraków, województwo małopolskie, 31-049, Polska",50.0555592,19.9423212
"Rogatka, Stare Miasto, Kraków, małopolskie","Rogatka, Stare Miasto, Kraków, małopolskie","Rogatka, Przedmieście Warszawskie, Stare Miasto, Kraków, województwo małopolskie, 30-962, Polska",50.0795208,19.9476816
"Smętna 9, Bronowice Wielkie, Kraków, małopolskie","Smętna 9, Bronowice Wielkie, Kraków, małopolskie","9, Smętna, Bronowice Wielkie, Prądnik Biały, Kraków, województwo małopolskie, 31-343, Polska",50.0925701,19.8855497
"Górników 50, Prokocim, Bieżanów-Prokocim, Kraków, małopolskie","Górników 50, Prokocim, Bieżanów-Prokocim, Kraków, małopolskie","50, Górników, Osiedle Medyków, Prokocim, Bieżanów-Prokocim, Kraków, województwo małopolskie, 30-823, Polska",50.0179841,19.9923036
"Tetmajera, Bronowice Małe, Kraków, małopolskie","Tetmajera, Bronowice Małe, Kraków, małopolskie","Włodzimierza Tetmajera, Bronowice Małe, Bronowice, Kraków, województwo małopolskie, 31-080, Polska",50.0950069,19.8663291
"Piastowska, Małe Błonia, Krowodrza, Kraków, małopolskie","Piastowska, Małe Błonia, Krowodrza, Kraków, małopolskie","Piastowska, Małe Błonia, Krowodrza, Kraków, województwo małopolskie, 30-066, Polska",50.0632013,19.9027203
"Zakrzówek, Kraków, małopolskie","Zakrzówek, Kraków, małopolskie","Zakrzówek, Zielna, Dębniki Zachód, Zakrzówek, Dębniki, Kraków, województwo małopolskie, 30-373, Polska",50.0365491,19.909501664466543
"Długa, Śródmieście, Kraków, małopolskie","Długa, Śródmieście, Kraków, małopolskie","Długa, Kleparz, Stare Miasto, Kraków, województwo małopolskie, 30-004, Polska",50.0724492,19.9358475
"Grębałowska 68B, Grębałów, Wzgórza Krzesławickie, Kraków, małopolskie","Grębałowska 68B, Grębałów, Wzgórza Krzesławickie, Kraków, małopolskie","68b, Grębałowska, Grębałów, Wzgórza Krzesławickie, Kraków, województwo małopolskie, 31-764, Polska",50.101746,20.0759882
"Augustiańska, Kazimierz, Kraków, małopolskie","Augustiańska, Kazimierz, Kraków, małopolskie","Augustiańska, Kazimierz, Stare Miasto, Kraków, województwo małopolskie, 31-064, Polska",50.0489498,19.9419504
"Niezapominajek| 4, Chełm, Zwierzyniec, Kraków, małopolskie","Niezapominajek| 4, Chełm, Zwierzyniec, Kraków, małopolskie","Niezapominajek, Chełm, Zwierzyniec, Kraków, województwo małopolskie, 30-239, Polska",50.068929,19.8445933
"Masarska 6, Grzegórzki, Grzegórzki, Kraków, małopolskie","Masarska 6, Grzegórzki, Grzegórzki, Kraków, małopolskie","6, Masarska, Grzegórzki, Kraków, województwo małopolskie, 31-534, Polska",50.0553484,19.9549624
"Józefa Pankiewicza, Stare Miasto, Stare Miasto, Kraków, małopolskie","Józefa Pankiewicza, Stare Miasto, Stare Miasto, Kraków, małopolskie","Józefa Pankiewicza, Łuczanowice, Wzgórza Krzesławickie, Kraków, województwo małopolskie, 31-990, Polska",50.1150278,20.1135927
"Stare Wiślisko 55n, Nowa Huta, Kraków, małopolskie","Stare Wiślisko 55n, Nowa Huta, Kraków, małopolskie","55n, Stare Wiślisko, Mogiła, Nowa Huta, Kraków, województwo małopolskie, 31-979, Polska",50.06130374999999,20.05609236214824
"Łużycka, Piaski Wielkie, Podgórze Duchackie, Kraków, małopolskie","Łużycka, Piaski Wielkie, Podgórze Duchackie, Kraków, małopolskie","Łużycka, Lazaret, Piaski Wielkie, Podgórze Duchackie, Kraków, województwo małopolskie, 30-658, Polska",50.010232,19.9710858
"Śliska, Stare Podgórze, Podgórze, Kraków, małopolskie","Śliska, Stare Podgórze, Podgórze, Kraków, małopolskie","Śliska, Stare Podgórze, Podgórze, Kraków, województwo małopolskie, 30-516, Polska",50.039545,19.9411694
"Osiedle Złotej Jesieni 2c, Bieńczyce, Bieńczyce, Kraków, małopolskie","Osiedle Złotej Jesieni 2c, Bieńczyce, Bieńczyce, Kraków, małopolskie","2C, Osiedle Złotej Jesieni, Bieńczyce, Kraków, województwo małopolskie, 31-827, Polska",50.0921846,20.024526890492687
"Wrocławskiej 24, Krowodrza, Krowodrza, Kraków, małopolskie","Wrocławskiej 24, Krowodrza, Krowodrza, Kraków, małopolskie","24, Wrocławska, Nowy Kleparz, Krowodrza, Kraków, województwo małopolskie, 30-006, Polska",50.0754233,19.929980388347403
"Pszenna, Wola Duchacka, Kraków, małopolskie","Pszenna, Wola Duchacka, Kraków, małopolskie","Pszenna, Wola Duchacka, Podgórze Duchackie, Kraków, województwo małopolskie, 30-654, Polska",50.0217433,19.9551565
"Józefińska 31, Stare Podgórze, Podgórze, Kraków, małopolskie","Józefińska 31, Stare Podgórze, Podgórze, Kraków, małopolskie","31, Józefińska, Stare Podgórze, Podgórze, Kraków, województwo małopolskie, 30-530, Polska",50.0455147,19.9544361
"Armii Krajowej, Krowodrza, Kraków, małopolskie","Armii Krajowej, Krowodrza, Kraków, małopolskie","Armii Krajowej, Małe Błonia, Krowodrza, Kraków, województwo małopolskie, 30-133, Polska",50.0711263,19.8954889
"Nuszkiewicza, Prądnik Czerwony, Kraków, małopolskie","Nuszkiewicza, Prądnik Czerwony, Kraków, małopolskie","Majora Ryszarda Nuszkiewicza, Prądnik Czerwony, Kraków, województwo małopolskie, 31-423, Polska",50.0900018,19.9633695
"Krowodrza Górka, Prądnik Biały, Kraków, małopolskie","Krowodrza Górka, Prądnik Biały, Kraków, małopolskie","Krowodrza Górka, Prądnik Biały, Kraków, województwo małopolskie, Polska",50.0887692,19.9299753
"al. Zygmunta Krasińskiego, Zwierzyniec, Zwierzyniec, Kraków, małopolskie","al. Zygmunta Krasińskiego, Zwierzyniec, Zwierzyniec, Kraków, małopolskie","Aleja Zygmunta Krasińskiego, Półwsie Zwierzynieckie, Zwierzyniec, Kraków, województwo małopolskie, 31-111, Polska",50.0582964,19.9255426
"Metalowców, Grzegórzki, Grzegórzki, Kraków, małopolskie","Metalowców, Grzegórzki, Grzegórzki, Kraków, małopolskie","Metalowców, Grzegórzki, Kraków, województwo małopolskie, 31-537, Polska",50.058387,19.9503427
"Meissnera, Śródmieście, Kraków, małopolskie","Meissnera, Śródmieście, Kraków, małopolskie","Janusza Meissnera, Ugorek, Rakowice, Prądnik Czerwony, Kraków, województwo małopolskie, 31-465, Polska",50.0796912,19.9749499
"Bieżanów, Bieżanów-Prokocim, Kraków, małopolskie","Bieżanów, Bieżanów-Prokocim, Kraków, małopolskie","Bieżanów, Bieżanów-Prokocim, Kraków, województwo małopolskie, Polska",50.0146273,20.0284026
"Olszyny, Dębniki, Kraków, małopolskie","Olszyny, Dębniki, Kraków, małopolskie","Olszyny, Dębniki, Kraków, województwo małopolskie, 30-399, Polska",49.9806745,19.8736667
"Konrada Wallenroda 59, ul. Leonida Teligi, ul. Jana Kurczaba, Prokocim, Bieżanów-Prokocim, Kraków, małopolskie","Konrada Wallenroda 59, Kraków, małopolskie","59, Konrada Wallenroda, Nowy Prokocim, Prokocim, Bieżanów-Prokocim, Kraków, województwo małopolskie, 30-867, Polska",50.01688705,20.003290664149617
"Nałkowskiej, Dębniki, Kraków, małopolskie","Nałkowskiej, Dębniki, Kraków, małopolskie","Zofii Nałkowskiej, Dom Nad Łąkami, Olszyny, Dębniki, Kraków, województwo małopolskie, 30-399, Polska",49.977644,19.8776483
"Osiedle Hutnicze, Bieńczyce, Kraków, małopolskie","Osiedle Hutnicze, Bieńczyce, Kraków, małopolskie","Osiedle Hutnicze, Nowa Huta, Kraków, województwo małopolskie, Polska",50.0727517,20.0454692
"Pilotów, Prądnik Czerwony, Kraków, małopolskie","Pilotów, Prądnik Czerwony, Kraków, małopolskie","Pilotów, Olsza II, Olsza, Prądnik Czerwony, Kraków, województwo małopolskie, 31-462, Polska",50.0771182,19.9694925
"Skwerowa 52, Dębniki, Dębniki, Kraków, małopolskie","Skwerowa 52, Dębniki, Dębniki, Kraków, małopolskie","52, Skwerowa, Dębniki, Kraków, województwo małopolskie, 30-306, Polska",50.0480302,19.9276702
"Łobzowska, Piasek, Stare Miasto, Kraków, małopolskie","Łobzowska, Piasek, Stare Miasto, Kraków, małopolskie","Łobzowska, Piasek, Stare Miasto, Kraków, województwo małopolskie, 30-036, Polska",50.0706111,19.931853
"Mitery, Stare Podgórze, Kraków, małopolskie","Mitery, Stare Podgórze, Kraków, małopolskie","Stanisława Mitery, Stare Podgórze, Podgórze, Kraków, województwo małopolskie, 30-505, Polska",50.0387673,19.9403193
"Rezedowa, Prądnik Czerwony, Kraków, małopolskie","Rezedowa, Prądnik Czerwony, Kraków, małopolskie","Rezedowa, Prądnik Czerwony, Kraków, województwo małopolskie, 31-409, Polska",50.0867204,19.9614121
"Jana Gutenberga, Ruczaj, Dębniki, Kraków, małopolskie","Jana Gutenberga, Ruczaj, Dębniki, Kraków, małopolskie","Jana Gutenberga, Osiedle Szuwarowa, Ruczaj, Dębniki, Kraków, województwo małopolskie, 30-348, Polska",50.0246833,19.9031077
"Pylna, Chełm, Zwierzyniec, Kraków, małopolskie","Pylna, Chełm, Zwierzyniec, Kraków, małopolskie","Pylna, Chełm, Zwierzyniec, Kraków, województwo małopolskie, 30-236, Polska",50.0711847,19.8562903
"Aleja 29 Listopada, Stare Miasto, Kraków, małopolskie","Aleja 29 Listopada, Stare Miasto, Kraków, małopolskie","Aleja 29 Listopada, Przedmieście Warszawskie, Stare Miasto, Kraków, województwo małopolskie, 31-401, Polska",50.0750648,19.9467425
"Komorowskiego, Salwator, Kraków, małopolskie","Komorowskiego, Salwator, Kraków, małopolskie","Bolesława Komorowskiego, Półwsie Zwierzynieckie, Zwierzyniec, Kraków, województwo małopolskie, 30-107, Polska",50.0537314,19.9205937
"Oboźna, Krowodrza, Kraków, małopolskie","Oboźna, Krowodrza, Kraków, małopolskie","Oboźna, Nowy Kleparz, Krowodrza, Kraków, województwo małopolskie, 30-010, Polska",50.0797998,19.9287252
"Buszka, Krowodrza, Kraków, małopolskie","Buszka, Krowodrza, Kraków, małopolskie","Jana Buszka, Małe Błonia, Krowodrza, Kraków, województwo małopolskie, 30-133, Polska",50.0683981,19.897333
"Wysokie, Wysokie, Kraków, małopolskie","Wysokie, Wysokie, Kraków, małopolskie","Hababa, 8, oOsiedle Wysokie, Bieńczyce, Kraków, województwo małopolskie, 31-819, Polska",50.0896472,20.0170119
"Osiedle Albertyńskie 19, Czyżyny, Kraków, małopolskie","Osiedle Albertyńskie 19, Czyżyny, Kraków, małopolskie","19, Osiedle Albertyńskie, Bieńczyce, Kraków, województwo małopolskie, 31-853, Polska",50.08324895,20.01966545507257
"Rynek Dębnicki, Dębniki, Kraków, małopolskie","Rynek Dębnicki, Dębniki, Kraków, małopolskie","Rynek Dębnicki, Różana, Dębniki, Kraków, województwo małopolskie, 30-305, Polska",50.0516925,19.926981225313348
"Anny Jagiellonki, Bieńczyce, Bieńczyce, Kraków, małopolskie","Anny Jagiellonki, Bieńczyce, Bieńczyce, Kraków, małopolskie","Anny Jagiellonki, Bieńczyce, Kraków, województwo małopolskie, 31-832, Polska",50.08906,20.0229966
"Młodzieży 9a, Bieżanów, Bieżanów-Prokocim, Kraków, małopolskie","Młodzieży 9a, Bieżanów, Bieżanów-Prokocim, Kraków, małopolskie","9a, Młodzieży, Jemiołki, Prokocim, Bieżanów-Prokocim, Kraków, województwo małopolskie, 30-829, Polska",50.0237589,20.002396347409324
"Piltza- (2023, Kobierzyn, Dębniki, Kraków, małopolskie","Piltza- (2023, Kobierzyn, Dębniki, Kraków, małopolskie","Doktora Jana Piltza, Kobierzyn, Dębniki, Kraków, województwo małopolskie, 30-388, Polska",50.0089455,19.8894521
"Marcina Borelowskiego ""Lelewela"", Zwierzyniec, Zwierzyniec, Kraków, małopolskie","Marcina Borelowskiego ""Lelewela"", Zwierzyniec, Zwierzyniec, Kraków, małopolskie","Marcina Borelowskiego-Lelewela, Półwsie Zwierzynieckie, Zwierzyniec, Kraków, województwo małopolskie, 30-107, Polska",50.0555803,19.9218946
"Reja, Prądnik Biały, Kraków, małopolskie","Reja, Prądnik Biały, Kraków, małopolskie","Mikołaja Reja, Osiedle Żabiniec, Prądnik Biały, Kraków, województwo małopolskie, 31-215, Polska",50.086051,19.9433075
"Dworska, Ludwinów, Dębniki, Kraków, małopolskie","Dworska, Ludwinów, Dębniki, Kraków, małopolskie","Dworska, Osiedle Podwawelskie, Ludwinów, Dębniki, Kraków, województwo małopolskie, 30-312, Polska",50.0446491,19.9259657
"Stanisława ze Skalbmierza, Prądnik Czerwony, Kraków, małopolskie","Stanisława ze Skalbmierza, Prądnik Czerwony, Kraków, małopolskie","Stanisława ze Skalbmierza, Olsza II, Olsza, Prądnik Czerwony, Kraków, województwo małopolskie, 31-469, Polska",50.0821288,19.9677798
"Słomiana, Podgórze, Kraków, małopolskie","Słomiana, Podgórze, Kraków, małopolskie","Słomiana, Osiedle Podwawelskie, Ludwinów, Dębniki, Kraków, województwo małopolskie, 30-361, Polska",50.0412952,19.9248551
"Tadeusza Rejtana, Stare Podgórze, Podgórze, Kraków, małopolskie","Tadeusza Rejtana, Stare Podgórze, Podgórze, Kraków, małopolskie","Tadeusza Rejtana, Stare Podgórze, Podgórze, Kraków, województwo małopolskie, 30-510, Polska",50.0437372,19.9455459
"Bogusławskiego, Wawel, Kraków, małopolskie","Bogusławskiego, Kraków, małopolskie","Wojciecha Bogusławskiego, Stradom, Stare Miasto, Kraków, województwo małopolskie, 31-049, Polska",50.0561528,19.9424211
"Niezapominajek, Chełm, Zwierzyniec, Kraków, małopolskie","Niezapominajek, Chełm, Zwierzyniec, Kraków, małopolskie","Niezapominajek, Chełm, Zwierzyniec, Kraków, województwo małopolskie, 30-239, Polska",50.068929,19.8445933
"Podłęska, Bieżanów, Bieżanów-Prokocim, Kraków, małopolskie","Podłęska, Bieżanów, Bieżanów-Prokocim, Kraków, małopolskie","Podłęska, Bieżanów, Bieżanów-Prokocim, Kraków, województwo małopolskie, 30-865, Polska",50.0087167,20.0131964
"Wola Duchacka, Podgórze Duchackie, Kraków, małopolskie","Wola Duchacka, Podgórze Duchackie, Kraków, małopolskie","Wola Duchacka, Podgórze Duchackie, Kraków, województwo małopolskie, Polska",50.0207177,19.9603427
"Janusa, Dąbie, Kraków, małopolskie","Janusa, Dąbie, Kraków, małopolskie","Majora Pilota Stefana Janusa, Rakowice, Prądnik Czerwony, Kraków, województwo małopolskie, 31-571, Polska",50.069727,19.9825187
"Azory, Azory, Kraków, małopolskie","Azory, Azory, Kraków, małopolskie","Azory, Wojciecha Weissa, Azory, Prądnik Biały, Kraków, województwo małopolskie, 31-339, Polska",50.08676685,19.90901433037337
"Bartla, Kliny, Kraków, małopolskie","Bartla, Kliny, Kraków, małopolskie","Profesora Wojciecha Marii Bartla, Kliny Zacisze, Kliny, Swoszowice, Kraków, województwo małopolskie, 30-389, Polska",49.9988754,19.8965918
"Geremka - Kliny, Kliny, Swoszowice, Kraków, małopolskie","Geremka - Kliny, Kliny, Swoszowice, Kraków, małopolskie","Profesora Bronisława Geremka, Kliny Zacisze, Kliny, Swoszowice, Kraków, województwo małopolskie, 30-389, Polska",50.001948,19.893242
"osiedle Piastów, Mistrzejowice, Mistrzejowice, Kraków, małopolskie","osiedle Piastów, Mistrzejowice, Mistrzejowice, Kraków, małopolskie","Osiedle Piastów, Mistrzejowice, Kraków, województwo małopolskie, Polska",50.1003776,20.02101742976312
"Barska, Kombinat, Nowa Huta, Kraków, małopolskie","Barska, Kombinat, Nowa Huta, Kraków, małopolskie","Barska, Osiedle Podwawelskie, Ludwinów, Dębniki, Kraków, województwo małopolskie, 31-051, Polska",50.0455914,19.93269
"Żułowska, Śródmieście, Kraków, małopolskie","Żułowska, Śródmieście, Kraków, małopolskie","Żułowska, Olsza II, Olsza, Prądnik Czerwony, Kraków, województwo małopolskie, 31-435, Polska",50.0810191,19.9604032
"Celna, Podgórze, Kraków, małopolskie","Celna, Podgórze, Kraków, małopolskie","Celna, Stare Podgórze, Podgórze, Kraków, województwo małopolskie, 30-508, Polska",50.0451062,19.9465722
"Widok, Dąbie, Kraków, małopolskie","Widok, Dąbie, Kraków, małopolskie","Widok, Dąbie, Grzegórzki, Kraków, województwo małopolskie, 31-566, Polska",50.0573772,19.9789268
"Prądnik Biały, Prądnik Biały, Kraków, małopolskie","Prądnik Biały, Prądnik Biały, Kraków, małopolskie","Prądnik Biały, Kraków, województwo małopolskie, 31-227, Polska",50.0946257,19.929319
"Heleny, Ruczaj, Dębniki, Kraków, małopolskie","Heleny, Kraków, małopolskie","Heleny, Osiedle Nowy Bieżanów-Północ, Bieżanów, Bieżanów-Prokocim, Kraków, województwo małopolskie, 30-857, Polska",50.0146953,20.0245091
"Osiedle Zgody, Bieńczyce, Kraków, małopolskie","Osiedle Zgody, Kraków, małopolskie","Osiedle Zgody, Nowa Huta, Kraków, województwo małopolskie, Polska",50.0765676,20.0356877
"al. gen. Jana Skrzyneckiego, Stare Podgórze, Podgórze, Kraków, małopolskie","al. gen. Jana Skrzyneckiego, Stare Podgórze, Podgórze, Kraków, małopolskie","Aleja generała Jana Skrzyneckiego, Stare Podgórze, Podgórze, Kraków, województwo małopolskie, 30-636, Polska",50.0350543,19.9349549
"Wielicka 80, Prokocim-Bieżanów ( XII ), Kraków, małopolskie","Wielicka 80, Prokocim-Bieżanów ( XII ), Kraków, małopolskie","Wielicka, Rżąka, Bieżanów-Prokocim, Kraków, województwo małopolskie, 30-695, Polska",50.0089381,20.011181
"Heila, Wola Duchacka, Kraków, małopolskie","Heila, Wola Duchacka, Kraków, małopolskie","Edwarda Heila, Wola Duchacka, Podgórze Duchackie, Kraków, województwo małopolskie, 30-633, Polska",50.0224899,19.9590629
"Romana Ciesielskiego, Łęg, Czyżyny, Kraków, małopolskie","Romana Ciesielskiego, Łęg, Czyżyny, Kraków, małopolskie","Romana Ciesielskiego, Zawsie, Łęg, Czyżyny, Kraków, województwo małopolskie, 31-587, Polska",50.0607947,20.0152019
"Szlak Nowoczesny Apartament w centrum, Kleparz, Stare Miasto, Kraków, małopolskie","Szlak Nowoczesny Apartament w centrum, Kleparz, Stare Miasto, Kraków, małopolskie","Szlak, Piasek, Stare Miasto, Kraków, województwo małopolskie, 31-161, Polska",50.0708142,19.9345154
"Rakowicka ENG, Przedmieście Warszawskie, Stare Miasto, Kraków, małopolskie","Rakowicka ENG, Przedmieście Warszawskie, Stare Miasto, Kraków, małopolskie","Rakowicka, Osiedle Oficerskie, Grzegórzki, Kraków, województwo małopolskie, 31-509, Polska",50.0687346,19.9529591
"Lichecka, Łagiewniki, Łagiewniki-Borek Fałęcki, Kraków, małopolskie","Lichecka, Łagiewniki, Łagiewniki-Borek Fałęcki, Kraków, małopolskie","Lechicka, Łagiewniki, Łagiewniki-Borek Fałęcki, Kraków, województwo małopolskie, 30-601, Polska",50.0241242,19.9369609
"Ćwiklińskiej, Dzielnica XII Bieżanów-Prokocim, Kraków, małopolskie","Ćwiklińskiej, Dzielnica XII Bieżanów-Prokocim, Kraków, małopolskie","Ćwiklińskiej, Mieczysławy Ćwiklińskiej, Osiedle Nowy Bieżanów-Północ, Bieżanów, Bieżanów-Prokocim, Kraków, województwo małopolskie, 30-863, Polska",50.01611,20.01882027450765
"Skarbińskiego, Krowodrza, Kraków, małopolskie","Skarbińskiego, Krowodrza, Kraków, małopolskie","Stanisława Skarbińskiego, Łobzów, Krowodrza, Kraków, województwo małopolskie, 30-056, Polska",50.0707696,19.9104423
"Mistrzejowice, Kraków, małopolskie","Mistrzejowice, Kraków, małopolskie","Mistrzejowice, Kraków, województwo małopolskie, Polska",50.09742625,20.00960263225891
"Prądnicka, Prądnik Biały, Kraków, małopolskie","Prądnicka, Prądnik Biały, Kraków, małopolskie","Prądnicka, Żabiniec, Prądnik Biały, Kraków, województwo małopolskie, 31-201, Polska",50.082742,19.9377109
"Rydla, Łobzów, Kraków, małopolskie","Rydla, Łobzów, Kraków, małopolskie","ROD im. Lucjana Rydla, Prądnik Biały, Kraków, województwo małopolskie, Polska",50.08525945,19.89239782584007
"Starowiślna, Kazimierz, Kraków, małopolskie","Starowiślna, Kazimierz, Kraków, małopolskie","Starowiślna, Kazimierz, Stare Miasto, Kraków, województwo małopolskie, 31-037, Polska",50.0536589,19.9484026
"Celakówny, Bieńczyce, Kraków, małopolskie","Celakówny, Bieńczyce, Kraków, małopolskie","Rozalii Celakówny, Bieńczyce, Kraków, województwo małopolskie, 31-808, Polska",50.0883586,20.0099779
"Bronowicka | od zaraz, Bronowice, Bronowice, Kraków, małopolskie","Bronowicka | od zaraz, Bronowice, Bronowice, Kraków, małopolskie","Bronowicka, Bronowice, Kraków, województwo małopolskie, 30-124, Polska",50.0759556,19.90571
"Czyżyny, Kraków, małopolskie","Czyżyny, Kraków, małopolskie","Czyżyny, Kraków, województwo małopolskie, Polska",50.06652355,20.00884129147333
"Lubocka 31c, Nowa Huta, Kraków, małopolskie","Lubocka 31c, Nowa Huta, Kraków, małopolskie","31c, Lubocka, Bugaj, Lubocza, Wzgórza Krzesławickie, Kraków, województwo małopolskie, 31-766, Polska",50.0944947,20.0816233
"Tuchowska, Łużycka, Witosa, Kurdwanów, Podgórze Duchackie, Kraków, małopolskie","Tuchowska, Łużycka, Witosa, Kurdwanów, Podgórze Duchackie, Kraków, małopolskie","Tuchowska, Kurdwanów, Podgórze Duchackie, Kraków, województwo małopolskie, 30-658, Polska",50.0113281,19.9668759
"Niebyła, Wzgórza Krzesławickie, Kraków, małopolskie","Niebyła, Wzgórza Krzesławickie, Kraków, małopolskie","Niebyła, Wzgórza Krzesławickie, Kraków, województwo małopolskie, 31-722, Polska",50.1007314,20.0605009
"Buszka, Dzielnica VI Bronowice, Kraków, małopolskie","Buszka, Dzielnica VI Bronowice, Kraków, małopolskie","Jana Buszka, Małe Błonia, Krowodrza, Kraków, województwo małopolskie, 30-133, Polska",50.0683981,19.897333
"Librowszczyzna, Stare Miasto, Kraków, małopolskie","Librowszczyzna, Stare Miasto, Kraków, małopolskie","Librowszczyzna, Wesoła, Stare Miasto, Kraków, województwo małopolskie, 31-030, Polska",50.0590586,19.945655
