address,manipulated address,location,latitude,longitude
"Ludwika Pasteura, Prądnik Biały, Prądnik Biały, Kraków, małopolskie","Ludwika Pasteura, Prądnik Biały, Prądnik Biały, Kraków, małopolskie","Ludwika Pasteura, Prądnik Biały, Kraków, województwo małopolskie, 31-222, Polska",50.0973468,19.9329747
"Konfederacka, Dębniki, Kraków, małopolskie","Konfederacka, Dębniki, Kraków, małopolskie","Konfederacka, Dębniki, Kraków, województwo małopolskie, 30-318, Polska",50.0497598,19.9264538
"Bronowice Wiadukt, Bronowice, Bronowice, Kraków, małopolskie","Bronowice Wiadukt, Bronowice, Bronowice, Kraków, małopolskie","Bronowice, Kraków, województwo małopolskie, Polska",50.0833247,19.869783648014888
"abp. Zygmunta Szczęsnego Felińskiego, Górka Narodowa, Prądnik Biały, Kraków, małopolskie","abp. Zygmunta Szczęsnego Felińskiego, Górka Narodowa, Prądnik Biały, Kraków, małopolskie","Arcybiskupa Zygmunta Szczęsnego Felińskiego, Górka Narodowa, Prądnik Biały, Kraków, województwo małopolskie, 31-236, Polska",50.1007058,19.9670637
"Seweryna Goszczyńskiego, Płaszów, Podgórze, Kraków, małopolskie","Seweryna Goszczyńskiego, Płaszów, Podgórze, Kraków, małopolskie","Seweryna Goszczyńskiego, Rogatka, Płaszów, Podgórze, Kraków, województwo małopolskie, 30-724, Polska",50.0377005,19.9910359
"Henryka Pachońskiego, Prądnik Biały, Prądnik Biały, Kraków, małopolskie","Henryka Pachońskiego, Prądnik Biały, Prądnik Biały, Kraków, małopolskie","Henryka Pachońskiego, Prądnik Biały, Kraków, województwo małopolskie, 31-223, Polska",50.0935683,19.9225386
"Bieńczycka, Nowa Huta, Nowa Huta, Kraków, małopolskie","Bieńczycka, Nowa Huta, Nowa Huta, Kraków, małopolskie","Bieńczycka, Nowa Huta, Kraków, województwo małopolskie, 31-860, Polska",50.0772202,20.0235855
"Cieszyńska, Krowodrza, Kraków, małopolskie","Cieszyńska, Krowodrza, Kraków, małopolskie","Cieszyńska, Nowy Kleparz, Krowodrza, Kraków, województwo małopolskie, 30-006, Polska",50.0751113,19.9316778
"Osiedle Stalowe, Nowa Huta, Nowa Huta, Kraków, małopolskie","Osiedle Stalowe, Nowa Huta, Nowa Huta, Kraków, małopolskie","Osiedle Stalowe, Nowa Huta, Kraków, województwo małopolskie, Polska",50.0738288,20.0506477
"Rozdroże, Podwawelskie, Kraków, małopolskie","Rozdroże, Podwawelskie, Kraków, małopolskie","Rozdroże, Osiedle Podwawelskie, Ludwinów, Dębniki, Kraków, województwo małopolskie, 30-334, Polska",50.0413672,19.9316964
"Komndosów, Ludwinów, Dębniki, Kraków, małopolskie","Komandosów, Kraków, małopolskie","Komandosów, Osiedle Podwawelskie, Ludwinów, Dębniki, Kraków, województwo małopolskie, 30-334, Polska",50.0418812,19.9312845
"Komndosów, Ludwinów, Dębniki, Kraków, małopolskie","Komandosów, Kraków, małopolskie","Komandosów, Osiedle Podwawelskie, Ludwinów, Dębniki, Kraków, województwo małopolskie, 30-334, Polska",50.0418812,19.9312845
"Komndosów, Ludwinów, Dębniki, Kraków, małopolskie","Komandosów, Kraków, małopolskie","Komandosów, Osiedle Podwawelskie, Ludwinów, Dębniki, Kraków, województwo małopolskie, 30-334, Polska",50.0418812,19.9312845
"Komndosów, Ludwinów, Dębniki, Kraków, małopolskie","Komandosów, Kraków, małopolskie","Komandosów, Osiedle Podwawelskie, Ludwinów, Dębniki, Kraków, województwo małopolskie, 30-334, Polska",50.0418812,19.9312845
"Azory, Azory, Prądnik Biały, Kraków, małopolskie","Azory, Azory, Prądnik Biały, Kraków, małopolskie","Azory, Wojciecha Weissa, Azory, Prądnik Biały, Kraków, województwo małopolskie, 31-339, Polska",50.0870919,19.909095
"Dunin-Wąsowicza, Krowodrza, Kraków, małopolskie","Dunin-Wąsowicza, Krowodrza, Kraków, małopolskie","Rotmistrza Zbigniewa Dunin-Wąsowicza, Półwsie Zwierzynieckie, Zwierzyniec, Kraków, województwo małopolskie, 30-112, Polska",50.0567692,19.92248
"Na Polach, Bronowice, Kraków, małopolskie","Na Polach, Bronowice, Kraków, małopolskie","Na Polach, Bronowice Wielkie, Prądnik Biały, Kraków, województwo małopolskie, 31-354, Polska",50.0969048,19.8761709
"Emaus 55A, Zwierzyniec, Zwierzyniec, Kraków, małopolskie","Emaus 55A, Zwierzyniec, Zwierzyniec, Kraków, małopolskie","Emaus, Zwierzyniec, Kraków, województwo małopolskie, 30-213, Polska",50.0606141,19.8984091
"Dworcowa, Bieżanów, Kraków, małopolskie","Dworcowa, Bieżanów, Kraków, małopolskie","Dworcowa, Kabel, Podgórze, Kraków, województwo małopolskie, 30-559, Polska",50.0343316,19.973753
"Kurczaba, Kraków, małopolskie","Kurczaba, Kraków, małopolskie","Jana Kurczaba, Nowy Prokocim, Prokocim, Bieżanów-Prokocim, Kraków, województwo małopolskie, 30-868, Polska",50.0137338,20.0074091
"Pisarka, Czyżyny, Kraków, małopolskie","Pisarka, Czyżyny, Kraków, małopolskie","Majora Pilota Mariana Pisarka, Czyżyny, Kraków, województwo małopolskie, 31-872, Polska",50.0841302,20.0016071
"Chałupnika, Kraków, małopolskie","Chałupnika, Kraków, małopolskie","Ogrody Chałupnika, Prądnik Czerwony, Kraków, województwo małopolskie, Polska",50.074736400000006,19.97454706330726
"Bratysławska, Kraków, małopolskie","Bratysławska, Kraków, małopolskie","Bratysławska, Krowodrza Górka, Prądnik Biały, Kraków, województwo małopolskie, 31-271, Polska",50.0839659,19.9335671
"Osiedle Bohaterów Września, Kraków, małopolskie","Osiedle Bohaterów Września, Kraków, małopolskie","Osiedle Bohaterów Września, Mistrzejowice, Kraków, województwo małopolskie, Polska",50.098804,20.009940791706967
"Jana Pawła II, Rakowice, Prądnik Czerwony, Kraków, małopolskie","Jana Pawła II, Rakowice, Prądnik Czerwony, Kraków, małopolskie","Aleja Jana Pawła II, Ugorek, Rakowice, Prądnik Czerwony, Kraków, województwo małopolskie, 31-446, Polska",50.0729408,19.9852689
"Józefitów, Nowa Wieś, Krowodrza, Kraków, małopolskie","Józefitów, Nowa Wieś, Krowodrza, Kraków, małopolskie","Józefitów, Nowa Wieś, Krowodrza, Kraków, województwo małopolskie, 30-039, Polska",50.0705695,19.9237312
"Zofii Nałkowskiej, Olszyny, Dębniki, Kraków, małopolskie","Zofii Nałkowskiej, Olszyny, Dębniki, Kraków, małopolskie","Zofii Nałkowskiej, Dom Nad Łąkami, Olszyny, Dębniki, Kraków, województwo małopolskie, 30-399, Polska",49.977644,19.8776483
"Piaskowa, Bronowice Wielkie, Prądnik Biały, Kraków, małopolskie","Piaskowa, Bronowice Wielkie, Prądnik Biały, Kraków, małopolskie","Piaskowa, Bronowice Wielkie, Prądnik Biały, Kraków, województwo małopolskie, 31-341, Polska",50.0960739,19.9016319
"Rydla 47, Bronowice Małe, Kraków, małopolskie","Rydla 47, Bronowice Małe, Kraków, małopolskie","47, Lucjana Rydla, Bronowice, Kraków, województwo małopolskie, 30-087, Polska",50.0799958,19.903663219936284
"Św. Sebastiana - okolice, Stradom, Stare Miasto, Kraków, małopolskie","Św. Sebastiana - okolice, Stradom, Stare Miasto, Kraków, małopolskie","Świętego Sebastiana, Stradom, Stare Miasto, Kraków, województwo małopolskie, 31-049, Polska",50.0555592,19.9423212
"Aleja Kijowska, Krowodrza, Kraków, małopolskie","Aleja Kijowska, Krowodrza, Kraków, małopolskie","Aleja Kijowska, Łobzów, Krowodrza, Kraków, województwo małopolskie, 30-081, Polska",50.0730961,19.9156382
"Borowego, Wola Justowska, Kraków, małopolskie","Borowego, Wola Justowska, Kraków, małopolskie","Piotra Borowego, Zwierzyniec, Kraków, województwo małopolskie, 30-214, Polska",50.0644927,19.890371
"Barbary 14, Bieżanów, Kraków, małopolskie","Barbary 14, Bieżanów, Kraków, małopolskie","14, Barbary, Osiedle Nowy Bieżanów-Północ, Bieżanów, Bieżanów-Prokocim, Kraków, województwo małopolskie, 30-853, Polska",50.0162218,20.02255551591474
"Bułgarska, Ruczaj, Dębniki, Kraków, małopolskie","Bułgarska, Ruczaj, Dębniki, Kraków, małopolskie","Bułgarska, Osiedle Ruczaj-Zaborze, Ruczaj, Dębniki, Kraków, województwo małopolskie, 30-431, Polska",50.0269118,19.9177067
"Bolesława Wallek-Walewskiego, Bronowice, Bronowice, Kraków, małopolskie","Bolesława Wallek-Walewskiego, Bronowice, Bronowice, Kraków, małopolskie","Bolesława Wallek-Walewskiego, Bronowice, Kraków, województwo małopolskie, 30-091, Polska",50.079212,19.8974734
"Żwirowa, Prądnik Biały, Kraków, małopolskie","Żwirowa, Prądnik Biały, Kraków, małopolskie","Żwirowa, Prądnik Biały, Kraków, województwo małopolskie, 31-226, Polska",50.0989716,19.9275137
"Zagrodzkiego, Kraków, małopolskie","Zagrodzkiego, Kraków, małopolskie","Księdza Adolfa Zagrodzkiego, Borek Fałęcki, Łagiewniki-Borek Fałęcki, Kraków, województwo małopolskie, 30-427, Polska",50.0123221,19.9108819
"Bochenka, Piaski Nowe, Kraków, małopolskie","Bochenka, Piaski Nowe, Kraków, małopolskie","Bochenka, Adama Bochenka, Podlesie, Piaski Wielkie, Podgórze Duchackie, Kraków, województwo małopolskie, 30-691, Polska",50.0130894,19.977710891141733
"Bieżanów, Bieżanów, Kraków, małopolskie","Bieżanów, Bieżanów, Kraków, małopolskie","Kraków Bieżanów, Stacyjna, Osiedle Kolejowe, Złocień, Bieżanów-Prokocim, Kraków, województwo małopolskie, 30-851, Polska",50.0214997,20.0298488
"Kątowa 10, Przedmieście Warszawskie, Stare Miasto, Kraków, małopolskie","Kątowa 10, Przedmieście Warszawskie, Stare Miasto, Kraków, małopolskie","10, Kątowa, Przedmieście Warszawskie, Stare Miasto, Kraków, województwo małopolskie, 31-404, Polska",50.073999650000005,19.947375845797808
"Borkowska, Podgórze, Kraków, małopolskie","Borkowska, Podgórze, Kraków, małopolskie","Borkowska, Osiedle Za Fortem, Kliny, Swoszowice, Kraków, województwo małopolskie, 30-438, Polska",50.0040984,19.9058222
"Na Wierzchowinach, Wola Justowska, Zwierzyniec, Kraków, małopolskie","Na Wierzchowinach, Wola Justowska, Zwierzyniec, Kraków, małopolskie","Na Wierzchowinach, Wola Justowska, Zwierzyniec, Kraków, województwo małopolskie, 30-222, Polska",50.0681438,19.8697521
"Magnolii, Dębniki, Kraków, małopolskie","Magnolii, Dębniki, Kraków, małopolskie","Magnolii, Zaborze, Ruczaj, Dębniki, Kraków, województwo małopolskie, 30-385, Polska",50.0229208,19.9136644
"Plac Bohaterów Getta, Stare Podgórze, Kraków, małopolskie","Plac Bohaterów Getta, Stare Podgórze, Kraków, małopolskie","Plac Bohaterów Getta, Stare Podgórze, Podgórze, Kraków, województwo małopolskie, 30-527, Polska",50.04652365,19.9542679
"Jana Janowskiego, Kliny, Swoszowice, Kraków, małopolskie","Jana Janowskiego, Kliny, Swoszowice, Kraków, małopolskie","Jana Janowskiego, Kliny Zacisze, Kliny, Swoszowice, Kraków, województwo małopolskie, 30-440, Polska",50.0062246,19.9126204
"osiedle Centrum A, Nowa Huta, Nowa Huta, Kraków, małopolskie","osiedle Centrum A, Nowa Huta, Nowa Huta, Kraków, małopolskie","Osiedle Centrum A, Nowa Huta, Kraków, województwo małopolskie, 31-923, Polska",50.0720051,20.0409261
"Buszka, Dzielnica VI Bronowice, Kraków, małopolskie","Buszka, Dzielnica VI Bronowice, Kraków, małopolskie","Jana Buszka, Małe Błonia, Krowodrza, Kraków, województwo małopolskie, 30-133, Polska",50.0683981,19.897333
"Obrońców Krzyża, Nowa Huta, Kraków, małopolskie","Obrońców Krzyża, Nowa Huta, Kraków, małopolskie","Obrońców Krzyża, Nowa Huta, Kraków, województwo małopolskie, 31-948, Polska",50.0819215,20.0327411
"Kazimierz, Kazimierz, Kraków, małopolskie","Kazimierz, Kazimierz, Kraków, małopolskie","Hotel Kazimierz II, Starowiślna, Kazimierz, Stare Miasto, Kraków, województwo małopolskie, 31-037, Polska",50.053039850000005,19.949474962312205
"Osiedle Bohaterów Września, Mistrzejowice, Mistrzejowice, Kraków, małopolskie","Osiedle Bohaterów Września, Mistrzejowice, Mistrzejowice, Kraków, małopolskie","Osiedle Bohaterów Września, Mistrzejowice, Kraków, województwo małopolskie, Polska",50.098804,20.009940791706967
"Pszenna, Podgórze Duchackie, Kraków, małopolskie","Pszenna, Podgórze Duchackie, Kraków, małopolskie","Pszenna, Wola Duchacka, Podgórze Duchackie, Kraków, województwo małopolskie, 30-654, Polska",50.0217433,19.9551565
"Władysława Łokietka 282, Krowodrza, Kraków, małopolskie","Władysława Łokietka 282, Krowodrza, Kraków, małopolskie","Władysława Łokietka, Nowy Kleparz, Krowodrza, Kraków, województwo małopolskie, 30-010, Polska",50.0773956,19.9298619
"Brązownicza, Krowodrza, Kraków, małopolskie","Brązownicza, Krowodrza, Kraków, małopolskie","Brązownicza, Małe Błonia, Krowodrza, Kraków, województwo małopolskie, 30-142, Polska",50.0689686,19.892385
"Nawojki, Czarna Wieś, Krowodrza, Kraków, małopolskie","Nawojki, Czarna Wieś, Krowodrza, Kraków, małopolskie","Nawojki, Cichy Kącik, Czarna Wieś, Krowodrza, Kraków, województwo małopolskie, 30-070, Polska",50.0698603,19.9049546
"Konecznego, Krowodrza, Kraków, małopolskie","Konecznego, Krowodrza, Kraków, małopolskie","Feliksa Konecznego, Osiedle Żabiniec, Prądnik Biały, Kraków, województwo małopolskie, 30-016, Polska",50.0842951,19.9419166
"Klemensiewicza - 15, Olsza, Prądnik Czerwony, Kraków, małopolskie","Klemensiewicza - 15, Olsza, Prądnik Czerwony, Kraków, małopolskie","Zenona Klemensiewicza, Rogatka Warszawska, Olsza, Prądnik Czerwony, Kraków, województwo małopolskie, 31-482, Polska",50.0809595,19.9507548
"Rzepichy, Zwierzyniec, Kraków, małopolskie","Rzepichy, Zwierzyniec, Kraków, małopolskie","Rzepichy, Zakamycze, Zwierzyniec, Kraków, województwo małopolskie, 30-240, Polska",50.062516,19.8348066
"Bożego Ciała, Kazimierz, Stare Miasto, Kraków, małopolskie","Bożego Ciała, Kazimierz, Stare Miasto, Kraków, małopolskie","Bożego Ciała, Kazimierz, Stare Miasto, Kraków, województwo małopolskie, 31-062, Polska",50.0504267,19.9440193
"Lublańska 13, Prądnik Czerwony, Prądnik Czerwony, Kraków, małopolskie","Lublańska 13, Prądnik Czerwony, Prądnik Czerwony, Kraków, małopolskie","13, Lublańska, Prądnik Czerwony, Kraków, województwo małopolskie, 31-410, Polska",50.08551545,19.96243108152333
"Kasprowicza, Oficerskie, Kraków, małopolskie","Kasprowicza, Oficerskie, Kraków, małopolskie","Jana Kasprowicza, Osiedle Oficerskie, Grzegórzki, Kraków, województwo małopolskie, 31-523, Polska",50.0682802,19.9656763
"Nadwiślańskiej, Stare Podgórze, Podgórze, Kraków, małopolskie","Nadwiślańskiej, Stare Podgórze, Podgórze, Kraków, małopolskie","Nadwiślańska, Stare Podgórze, Podgórze, Kraków, województwo małopolskie, 30-527, Polska",50.0475831,19.9532146
"marsz. Józefa Piłsudskiego, Piasek, Stare Miasto, Kraków, małopolskie","marsz. Józefa Piłsudskiego, Piasek, Stare Miasto, Kraków, małopolskie","Marszałka Józefa Piłsudskiego, Nowy Świat, Stare Miasto, Kraków, województwo małopolskie, 31-110, Polska",50.0601187,19.9297815
"Barbary, Bieżanów, Bieżanów-Prokocim, Kraków, małopolskie","Barbary, Bieżanów, Bieżanów-Prokocim, Kraków, małopolskie","Barbary, Osiedle Nowy Bieżanów-Północ, Bieżanów, Bieżanów-Prokocim, Kraków, województwo małopolskie, 30-857, Polska",50.0152637,20.0245991
"Pielęgniarek, Żabiniec, Kraków, małopolskie","Pielęgniarek, Żabiniec, Kraków, małopolskie","Pielęgniarek, Krowodrza Górka, Prądnik Biały, Kraków, województwo małopolskie, 31-201, Polska",50.0835066,19.9389089
"Federowicza, Ruczaj, Kraków, małopolskie","Federowicza, Ruczaj, Kraków, małopolskie","Jana Kantego Federowicza, Wodka, Skotniki, Dębniki, Kraków, województwo małopolskie, 30-369, Polska",50.0130679,19.8836852
"Bronowice Wielkie, Kraków, małopolskie","Bronowice Wielkie, Kraków, małopolskie","Bronowice Wielkie, Prądnik Biały, Kraków, województwo małopolskie, Polska",50.0944444,19.8822222
"Chodkiewicza, Kazimierz, Kraków, małopolskie","Chodkiewicza, Kazimierz, Kraków, małopolskie","Jana Karola Chodkiewicza, Grzegórzki, Kraków, województwo małopolskie, 31-534, Polska",50.0562553,19.9538028
"Zbrojarzy, Ruczaj, Dębniki, Kraków, małopolskie","Zbrojarzy, Ruczaj, Dębniki, Kraków, małopolskie","Zbrojarzy, Ruczaj, Dębniki, Kraków, województwo małopolskie, 30-412, Polska",50.0232057,19.9218035
"Aleja Jana Pawła II, Czyżyny, Kraków, małopolskie","Aleja Jana Pawła II, Czyżyny, Kraków, małopolskie","Aleja Jana Pawła II, Czyżyny, Kraków, województwo małopolskie, 31-581, Polska",50.07387,20.012032
"Dworska, Ludwinów, Dębniki, Kraków, małopolskie","Dworska, Ludwinów, Dębniki, Kraków, małopolskie","Dworska, Osiedle Podwawelskie, Ludwinów, Dębniki, Kraków, województwo małopolskie, 30-312, Polska",50.0446491,19.9259657
"Zbrojarzy 105, Ruczaj, Dębniki, Kraków, małopolskie","Zbrojarzy 105, Ruczaj, Dębniki, Kraków, małopolskie","105, Zbrojarzy, Zaborze, Ruczaj, Dębniki, Kraków, województwo małopolskie, 30-412, Polska",50.0229786,19.919870330025127
"Kamieńskiego, Wola Duchacka, Kraków, małopolskie","Kamieńskiego, Wola Duchacka, Kraków, małopolskie","Generała Henryka Kamieńskiego, Wola Duchacka, Podgórze Duchackie, Kraków, województwo małopolskie, 30-644, Polska",50.0283916,19.9546387
"Zyblikiewicza, Śródmieście, Kraków, małopolskie","Zyblikiewicza, Śródmieście, Kraków, małopolskie","Mikołaja Zyblikiewicza, Wesoła, Stare Miasto, Kraków, województwo małopolskie, 31-030, Polska",50.0600107,19.945205
"Kordylewskiego, Grzegórzki, Kraków, małopolskie","Kordylewskiego, Grzegórzki, Kraków, małopolskie","Kazimierza Kordylewskiego, Grzegórzki, Kraków, województwo małopolskie, 31-542, Polska",50.0608409,19.962307
"Gajówka, Przegorzały, Zwierzyniec, Kraków, małopolskie","Gajówka, Przegorzały, Zwierzyniec, Kraków, małopolskie","Gajówka, Przegorzały, Zwierzyniec, Kraków, województwo małopolskie, 30-250, Polska",50.0459849,19.8578545
"Cystersów, Grzegórzki, Grzegórzki, Kraków, małopolskie","Cystersów, Grzegórzki, Grzegórzki, Kraków, małopolskie","Cystersów, Grzegórzki, Kraków, województwo małopolskie, 31-545, Polska",50.0640144,19.9699439
"Władysława Łokietka, Tonie, Prądnik Biały, Kraków, małopolskie","Władysława Łokietka, Tonie, Prądnik Biały, Kraków, małopolskie","Władysława Łokietka, Budzyń, Tonie, Prądnik Biały, Kraków, województwo małopolskie, 31-337, Polska",50.1174064,19.8933515
"Wysłouchów 30a, Kurdwanów, Kraków, małopolskie","Wysłouchów 30a, Kurdwanów, Kraków, małopolskie","30A, Marii i Bolesława Wysłouchów, Osiedle ""Kurdwanów Nowy"", Kurdwanów, Podgórze Duchackie, Kraków, województwo małopolskie, 30-611, Polska",50.0078586,19.9599098
"Chmieleniec, Podgórze, Kraków, małopolskie","Chmieleniec, Podgórze, Kraków, małopolskie","Chmieleniec, Osiedle Szuwarowa, Ruczaj, Dębniki, Kraków, województwo małopolskie, 30-382, Polska",50.0190472,19.9006675
"Bosacka, Wesoła Zachód, Stare Miasto, Kraków, małopolskie","Bosacka, Wesoła Zachód, Stare Miasto, Kraków, małopolskie","Bosacka, Wesoła, Stare Miasto, Kraków, województwo małopolskie, 31-504, Polska",50.0665498,19.9494979
"Bujwida, Stare Miasto, Kraków, małopolskie","Bujwida, Stare Miasto, Kraków, małopolskie","Odona Bujwida, Wesoła II, Grzegórzki, Kraków, województwo małopolskie, 31-529, Polska",50.060879,19.9502566
"Chmieleniec, Ruczaj, Kraków, małopolskie","Chmieleniec, Ruczaj, Kraków, małopolskie","Chmieleniec, Osiedle Szuwarowa, Ruczaj, Dębniki, Kraków, województwo małopolskie, 30-348, Polska",50.0197521,19.897659
"Litewska, Krowodrza, Kraków, małopolskie","Litewska, Krowodrza, Kraków, małopolskie","Litewska, Nowy Kleparz, Krowodrza, Kraków, województwo małopolskie, 30-019, Polska",50.0763999,19.9261022
"al.Kijowska, Łobzów, Krowodrza, Kraków, małopolskie","al.Kijowska, Łobzów, Krowodrza, Kraków, małopolskie","Aleja Kijowska, Łobzów, Krowodrza, Kraków, województwo małopolskie, 30-081, Polska",50.0730961,19.9156382
"Przegorzały, Zwierzyniec, Kraków, małopolskie","Przegorzały, Zwierzyniec, Kraków, małopolskie","Przegorzały, Zwierzyniec, Kraków, województwo małopolskie, Polska",50.0509503,19.8740774
"Filtrowa, Bronowice, Bronowice, Kraków, małopolskie","Filtrowa, Bronowice, Bronowice, Kraków, małopolskie","Filtrowa, Osiedle Widok-Zarzecze, Bronowice, Kraków, województwo małopolskie, 30-148, Polska",50.07769,19.8756941
"os. Piastów 63f, Mistrzejowice, Mistrzejowice, Kraków, małopolskie","os. Piastów 63f, Mistrzejowice, Mistrzejowice, Kraków, małopolskie","63F, Osiedle Piastów, Mistrzejowice, Kraków, województwo małopolskie, 31-625, Polska",50.10335495,20.015844028814183
"Jerzego Szablowskiego, Bronowice, Bronowice, Kraków, małopolskie","Jerzego Szablowskiego, Bronowice, Bronowice, Kraków, małopolskie","Jerzego Szablowskiego, Osiedle Widok-Zarzecze, Bronowice, Kraków, województwo małopolskie, 30-127, Polska",50.0766632,19.8936989
"Bartosza Głowackiego, Bronowice, Bronowice, Kraków, małopolskie","Bartosza Głowackiego, Bronowice, Bronowice, Kraków, małopolskie","Bartosza Głowackiego, Bronowice, Kraków, województwo małopolskie, 30-084, Polska",50.0775737,19.9042255
"Pawia, Stare Miasto, Kraków, małopolskie","Pawia, Stare Miasto, Kraków, małopolskie","Pawia, Kleparz, Stare Miasto, Kraków, województwo małopolskie, 31-154, Polska",50.0687318,19.9451594
"mjr. Ryszarda Nuszkiewicza, Prądnik Czerwony, Prądnik Czerwony, Kraków, małopolskie","mjr. Ryszarda Nuszkiewicza, Prądnik Czerwony, Prądnik Czerwony, Kraków, małopolskie","Majora Ryszarda Nuszkiewicza, Prądnik Czerwony, Kraków, województwo małopolskie, 31-423, Polska",50.0900018,19.9633695
"Rydla, Bronowice Małe, Kraków, małopolskie","Rydla, Bronowice Małe, Kraków, małopolskie","ROD im. Lucjana Rydla, Prądnik Biały, Kraków, województwo małopolskie, Polska",50.08525945,19.89239782584007
"Augustynka-Wichury, Kraków, małopolskie","Augustynka-Wichury, Kraków, małopolskie","Antoniego Augustynka-Wichury, Nowy Kleparz, Krowodrza, Kraków, województwo małopolskie, 30-010, Polska",50.0789658,19.9310892
"Głowackiego, Bronowice Małe Wschód, Kraków, małopolskie","Głowackiego, Bronowice Małe Wschód, Kraków, małopolskie","Bartosza Głowackiego, Bronowice, Kraków, województwo małopolskie, 30-084, Polska",50.0775737,19.9042255
"Szwedzka, Kraków, małopolskie","Szwedzka, Kraków, małopolskie","Szwedzka, Dębniki, Kraków, województwo małopolskie, 30-317, Polska",50.0495985,19.9223537
"al. Kijowska, Nowa Wieś, Krowodrza, Kraków, małopolskie","al. Kijowska, Nowa Wieś, Krowodrza, Kraków, małopolskie","Aleja Kijowska, Łobzów, Krowodrza, Kraków, województwo małopolskie, 30-023, Polska",50.0766089,19.917387
"os. Akademickie, Czyżyny, Czyżyny, Kraków, małopolskie","os. Akademickie, Czyżyny, Czyżyny, Kraków, małopolskie","Osiedle Akademickie, Czyżyny, Kraków, województwo małopolskie, 31-866, Polska",50.0852438,19.994655
"Małysiaka, Kliny Zacisze, Kraków, małopolskie","Małysiaka, Kliny Zacisze, Kraków, małopolskie","Biskupa Albina Małysiaka, Kobierzyn, Dębniki, Kraków, województwo małopolskie, 30-389, Polska",49.9987185,19.8938794
"Żabiniec, Krowodrza, Kraków, małopolskie","Żabiniec, Krowodrza, Kraków, małopolskie","Żabiniec, Prądnik Biały, Kraków, województwo małopolskie, Polska",50.0859311,19.9417425
"Sebastiana Klonowica, Wola Duchacka, Podgórze Duchackie, Kraków, małopolskie","Sebastiana Klonowica, Wola Duchacka, Podgórze Duchackie, Kraków, małopolskie","Sebastiana Klonowica, Wola Duchacka, Podgórze Duchackie, Kraków, województwo małopolskie, 30-654, Polska",50.0202294,19.9561864
"Murarska, Azory, Prądnik Biały, Kraków, małopolskie","Murarska, Azory, Prądnik Biały, Kraków, małopolskie","Murarska, Azory, Prądnik Biały, Kraków, województwo małopolskie, 31-310, Polska",50.0839989,19.9110676
"Galicyjska, Czyżyny, Kraków, małopolskie","Galicyjska, Czyżyny, Kraków, małopolskie","Galicyjska, Błonie-Beszcz, Łęg, Czyżyny, Kraków, województwo małopolskie, 30-580, Polska",50.0567004,20.004607
"Na Błonie, Wola Justowska, Kraków, małopolskie","Na Błonie, Wola Justowska, Kraków, małopolskie","Na Błonie, Osiedle Widok-Zarzecze, Bronowice, Kraków, województwo małopolskie, 30-146, Polska",50.0729546,19.8777465
"Sądowa 1, Bieńczyce, Bieńczyce, Kraków, małopolskie","Sądowa 1, Bieńczyce, Bieńczyce, Kraków, małopolskie","1, Sądowa, Grzegórzki, Kraków, województwo małopolskie, 31-542, Polska",50.0625139,19.965412579409232
"al. Ignacego Daszyńskiego, Grzegórzki, Grzegórzki, Kraków, małopolskie","al. Ignacego Daszyńskiego, Grzegórzki, Grzegórzki, Kraków, małopolskie","Aleja Ignacego Daszyńskiego, Grzegórzki, Kraków, województwo małopolskie, 31-536, Polska",50.0522169,19.9544966
"Wysokie, Wysokie, Kraków, małopolskie","Wysokie, Wysokie, Kraków, małopolskie","Hababa, 8, oOsiedle Wysokie, Bieńczyce, Kraków, województwo małopolskie, 31-819, Polska",50.0896472,20.0170119
"Heleny, Podgórze Duchackie, Kraków, małopolskie","Heleny, Podgórze Duchackie, Kraków, małopolskie","Heleny, Osiedle Nowy Bieżanów-Północ, Bieżanów, Bieżanów-Prokocim, Kraków, województwo małopolskie, 30-857, Polska",50.0146953,20.0245091
"Zielone, Kraków, małopolskie","Zielone, Kraków, małopolskie","Osiedle Zielone, Nowa Huta, Kraków, województwo małopolskie, Polska",50.0795971,20.0426044
"Brązownicza 14, Małe Błonia, Krowodrza, Kraków, małopolskie","Brązownicza 14, Małe Błonia, Krowodrza, Kraków, małopolskie","14, Brązownicza, Małe Błonia, Krowodrza, Kraków, województwo małopolskie, 30-142, Polska",50.0678875,19.8926929811756
"Jana Pawła Woronicza, Prądnik Czerwony, Prądnik Czerwony, Kraków, małopolskie","Jana Pawła Woronicza, Prądnik Czerwony, Prądnik Czerwony, Kraków, małopolskie","Jana Pawła Woronicza, Prądnik Czerwony, Kraków, województwo małopolskie, 31-409, Polska",50.0865056,19.9598216
"Okólna 22, Kozłówek, Kraków, małopolskie","Okólna 22, Kozłówek, Kraków, małopolskie","22, Okólna, Kozłówka, Bieżanów-Prokocim, Kraków, województwo małopolskie, 30-667, Polska",50.01593165,19.98399771533905
"Chełmska, Chełm, Zwierzyniec, Kraków, małopolskie","Chełmska, Chełm, Zwierzyniec, Kraków, małopolskie","Chełmska, Chełm, Zwierzyniec, Kraków, województwo małopolskie, 30-238, Polska",50.0671869,19.8462439
"os. Urocze, Nowa Huta, Nowa Huta, Kraków, małopolskie","os. Urocze, Nowa Huta, Nowa Huta, Kraków, małopolskie","Osiedle Urocze, Nowa Huta, Kraków, województwo małopolskie, Polska",50.0775,20.0366667
"Gabriela Narutowicza, Prądnik Biały, Prądnik Biały, Kraków, małopolskie","Gabriela Narutowicza, Prądnik Biały, Prądnik Biały, Kraków, małopolskie","Gabriela Narutowicza, Prądnik Biały, Kraków, województwo małopolskie, 31-214, Polska",50.0911753,19.9441062
"Myśliwska | 66, Płaszów, Podgórze, Kraków, małopolskie","Myśliwska | 66, Płaszów, Podgórze, Kraków, małopolskie","66, Myśliwska, Ogrody Płaszów, Płaszów, Podgórze, Kraków, województwo małopolskie, 30-718, Polska",50.0455215,19.99485514866849
"Stare Wiślisko, Mogiła, Nowa Huta, Kraków, małopolskie","Stare Wiślisko, Mogiła, Nowa Huta, Kraków, małopolskie","Stare Wiślisko, Mogiła, Nowa Huta, Kraków, województwo małopolskie, 31-979, Polska",50.058837,20.0543606
"Śródmieście, Przedmieście Warszawskie, Stare Miasto, Kraków, małopolskie","Śródmieście, Przedmieście Warszawskie, Stare Miasto, Kraków, małopolskie","RDM Śródmieście, Prądnik Czerwony, Kraków, województwo małopolskie, Polska",50.09025005,19.956435930517564
"Myśliwska, Płaszów, Kraków, małopolskie","Myśliwska, Płaszów, Kraków, małopolskie","Myśliwska, Ogrody Płaszów, Płaszów, Podgórze, Kraków, województwo małopolskie, 30-730, Polska",50.0451882,19.9955009
"Władysława Podkowińskiego, Azory, Prądnik Biały, Kraków, małopolskie","Władysława Podkowińskiego, Azory, Prądnik Biały, Kraków, małopolskie","Władysława Podkowińskiego, Azory, Prądnik Biały, Kraków, województwo małopolskie, 31-321, Polska",50.0849586,19.8949096
"XII Bieżanów-Prokocim, Kraków, małopolskie","XII Bieżanów-Prokocim, Kraków, małopolskie","Bieżanów-Prokocim, Kraków, województwo małopolskie, Polska",50.01706235,20.022991856015395
"Hugona Kołłątaja, Wesoła Wschód, Grzegórzki, Kraków, małopolskie","Hugona Kołłątaja, Wesoła Wschód, Grzegórzki, Kraków, małopolskie","Hugona Kołłątaja, Wesoła II, Grzegórzki, Kraków, województwo małopolskie, 31-502, Polska",50.0603542,19.9480932
"Marchołta, Prądnik Czerwony, Prądnik Czerwony, Kraków, małopolskie","Marchołta, Prądnik Czerwony, Prądnik Czerwony, Kraków, małopolskie","Marchołta, Prądnik Czerwony, Kraków, województwo małopolskie, 31-479, Polska",50.0926425,19.9858363
"Kościuszki 22, Zwierzyniec, Zwierzyniec, Kraków, małopolskie","Kościuszki 22, Zwierzyniec, Zwierzyniec, Kraków, małopolskie","22, Tadeusza Kościuszki, Półwsie Zwierzynieckie, Zwierzyniec, Kraków, województwo małopolskie, 30-204, Polska",50.05402315,19.925049412038952
"Grzegórzecka, Grzegórzki, Kraków, małopolskie","Grzegórzecka, Grzegórzki, Kraków, małopolskie","Grzegórzecka, Wesoła, Grzegórzki, Kraków, województwo małopolskie, 31-539, Polska",50.0578259,19.9583506
"Nowa Huta, Nowa Huta, Kraków, małopolskie","Nowa Huta, Nowa Huta, Kraków, małopolskie","Nowa Huta, Kraków, województwo małopolskie, 31-926, Polska",50.0727278,20.0375118
"Wincentego Pola, Grzegórzki, Grzegórzki, Kraków, małopolskie","Wincentego Pola, Grzegórzki, Grzegórzki, Kraków, małopolskie","Wincentego Pola, Grzegórzki, Kraków, województwo małopolskie, 31-532, Polska",50.0574878,19.9533977
"Maciejkowa, Prądnik Biały, Kraków, małopolskie","Maciejkowa, Prądnik Biały, Kraków, małopolskie","Maciejkowa, Budzyń, Tonie, Prądnik Biały, Kraków, województwo małopolskie, 31-336, Polska",50.107243,19.8960084
"Stańczyka 16, Bronowice, Bronowice, Kraków, małopolskie","Stańczyka 16, Bronowice, Bronowice, Kraków, małopolskie","16, Stańczyka, Bronowice, Kraków, województwo małopolskie, 30-126, Polska",50.077603,19.89200338417529
"Wodna Bagry/ Staw Płaszowski_8, Płaszów, Podgórze, Kraków, małopolskie","Wodna Bagry/ Staw Płaszowski_8, Płaszów, Podgórze, Kraków, małopolskie","8, Wodna, Rzeczki, Radziszów, gmina Skawina, powiat krakowski, województwo małopolskie, 32-052, Polska",49.915507,19.8159561
"Łobzowska, Stare Miasto, Kraków, małopolskie","Łobzowska, Stare Miasto, Kraków, małopolskie","Łobzowska, Piasek, Stare Miasto, Kraków, województwo małopolskie, 30-036, Polska",50.0706111,19.931853
"os. Handlowe, Nowa Huta, Nowa Huta, Kraków, małopolskie","os. Handlowe, Nowa Huta, Nowa Huta, Kraków, małopolskie","Osiedle Handlowe, Nowa Huta, Kraków, województwo małopolskie, Polska",50.0740992,20.0324078
"Studencka 29, Piasek, Stare Miasto, Kraków, małopolskie","Studencka 29, Piasek, Stare Miasto, Kraków, małopolskie","29, Studencka, Piasek, Stare Miasto, Kraków, województwo małopolskie, 31-116, Polska",50.0624615,19.927989001376936
"Celarowska, Prądnik Czerwony, Kraków, małopolskie","Celarowska, Prądnik Czerwony, Kraków, małopolskie","Celarowska, Wiśniowa, Olsza, Prądnik Czerwony, Kraków, województwo małopolskie, 31-414, Polska",50.0827488,19.9552214
"Sanocka, Wola Duchacka, Kraków, małopolskie","Sanocka, Wola Duchacka, Kraków, małopolskie","Sanocka, Wola Duchacka, Podgórze Duchackie, Kraków, województwo małopolskie, 30-622, Polska",50.0173255,19.9535859
"Wielopole/Stare Miasto/Rynek Główny, Wesoła Zachód, Stare Miasto, Kraków, małopolskie","Wielopole/Stare Miasto/Rynek Główny, Wesoła Zachód, Stare Miasto, Kraków, małopolskie","Wielopole, Kazimierz, Stare Miasto, Kraków, województwo małopolskie, 31-030, Polska",50.0581332,19.9469064
"Oboźna - Łobzów! NOWE, Krowodrza, Krowodrza, Kraków, małopolskie","Oboźna - Łobzów! NOWE, Krowodrza, Krowodrza, Kraków, małopolskie","Oboźna, Nowy Kleparz, Krowodrza, Kraków, województwo małopolskie, 30-010, Polska",50.0797998,19.9287252
"Żytnia, Olsza, Prądnik Czerwony, Kraków, małopolskie","Żytnia, Olsza, Prądnik Czerwony, Kraków, małopolskie","Żytnia, Wiśniowa, Olsza, Prądnik Czerwony, Kraków, województwo małopolskie, 31-414, Polska",50.0848375,19.956641
"Wicherkiewicza, Dębniki, Kraków, małopolskie","Wicherkiewicza, Dębniki, Kraków, małopolskie","Profesora Bolesława Wiktora Wicherkiewicza, Kliny Zacisze, Kliny, Swoszowice, Kraków, województwo małopolskie, 30-389, Polska",49.9996656,19.8970292
"Podmiłów, Prokocim, Bieżanów-Prokocim, Kraków, małopolskie","Podmiłów, Prokocim, Bieżanów-Prokocim, Kraków, małopolskie","Podmiłów, Jemiołki, Prokocim, Bieżanów-Prokocim, Kraków, województwo małopolskie, 30-829, Polska",50.0227843,20.0067074
"Grażyny, Prądnik Biały, Prądnik Biały, Kraków, małopolskie","Grażyny, Prądnik Biały, Prądnik Biały, Kraków, małopolskie","Grażyny, Prądnik Biały, Kraków, województwo małopolskie, 31-212, Polska",50.0891638,19.9486697
"Rydla, Śródmieście, Kraków, małopolskie","Rydla, Śródmieście, Kraków, małopolskie","ROD im. Lucjana Rydla, Prądnik Biały, Kraków, województwo małopolskie, Polska",50.08525945,19.89239782584007
"Turniejowa! Doskonała Komunikacja. 3, Wola Duchacka, Podgórze Duchackie, Kraków, małopolskie","Turniejowa! Doskonała Komunikacja. 3, Wola Duchacka, Podgórze Duchackie, Kraków, małopolskie","3, Turniejowa, Wola Duchacka, Podgórze Duchackie, Kraków, województwo małopolskie, 30-656, Polska",50.0195447,19.960168
"Kotlarska, Grzegórzki, Grzegórzki, Kraków, małopolskie","Kotlarska, Grzegórzki, Grzegórzki, Kraków, małopolskie","Kotlarska, Grzegórzki, Kraków, województwo małopolskie, 31-540, Polska",50.0541382,19.9597688
"Osiedle Centrum E, Nowa Huta, Nowa Huta, Kraków, małopolskie","Osiedle Centrum E, Nowa Huta, Nowa Huta, Kraków, małopolskie","Osiedle Centrum E, Nowa Huta, Kraków, województwo małopolskie, 31-934, Polska",50.0698682,20.0399341
"Rzeźnicza 3, Grzegórzki, Kraków, małopolskie","Rzeźnicza 3, Grzegórzki, Kraków, małopolskie","3, Rzeźnicza, Grzegórzki, Kraków, województwo małopolskie, 31-540, Polska",50.0571011,19.9566847
"Reduta 9, Prądnik Czerwony, Prądnik Czerwony, Kraków, małopolskie","Reduta 9, Prądnik Czerwony, Prądnik Czerwony, Kraków, małopolskie","9, Reduta, Prądnik Czerwony, Kraków, województwo małopolskie, 31-421, Polska",50.09533355,19.97655176498278
"Willowe, Nowa Huta, Kraków, małopolskie","Willowe, Nowa Huta, Kraków, małopolskie","Osiedle Willowe, Nowa Huta, Kraków, województwo małopolskie, Polska",50.0721963,20.0500073
"Królowej Jadwigi, Chełm, Zwierzyniec, Kraków, małopolskie","Królowej Jadwigi, Chełm, Zwierzyniec, Kraków, małopolskie","Królowej Jadwigi, Chełm, Zwierzyniec, Kraków, województwo małopolskie, 30-225, Polska",50.068872,19.8626278
"Mały Płaszów, Podgórze, Kraków, małopolskie","Mały Płaszów, Podgórze, Kraków, małopolskie","Mały Płaszów, Podgórze, Kraków, województwo małopolskie, Polska",50.04085875,20.002601010842834
"Piasta Kołodzieja, Mistrzejowice, Kraków, małopolskie","Piasta Kołodzieja, Mistrzejowice, Kraków, małopolskie","Piasta Kołodzieja, Mistrzejowice, Kraków, województwo małopolskie, 31-620, Polska",50.0956129,20.0127952
"Stachowskiego, Grzegórzki, Kraków, małopolskie","Stachowskiego, Grzegórzki, Kraków, małopolskie","Marka Stachowskiego, Grzegórzki, Kraków, województwo małopolskie, 30-701, Polska",50.0539657,19.9619045
"Osiedle Kalinowe, Bieńczyce, Bieńczyce, Kraków, małopolskie","Osiedle Kalinowe, Bieńczyce, Bieńczyce, Kraków, małopolskie","Osiedle Kalinowe, Bieńczyce, Kraków, województwo małopolskie, Polska",50.091117,20.013326731946403
"Akacjowa, Prądnik Czerwony, Kraków, małopolskie","Akacjowa, Prądnik Czerwony, Kraków, małopolskie","Akacjowa, Ugorek, Rakowice, Prądnik Czerwony, Kraków, województwo małopolskie, 31-460, Polska",50.0820475,19.979335
"Józefa Dietla, Stradom, Stare Miasto, Kraków, małopolskie","Józefa Dietla, Stradom, Stare Miasto, Kraków, małopolskie","Józefa Dietla, Stradom, Stare Miasto, Kraków, województwo małopolskie, 31-070, Polska",50.0508896,19.9395366
"Aleja Pokoju, Grzegórzki, Kraków, małopolskie","Aleja Pokoju, Grzegórzki, Kraków, małopolskie","Aleja Pokoju, Dąbie, Grzegórzki, Kraków, województwo małopolskie, 31-557, Polska",50.0593942,19.9760994
"Babinicza, Kliny, Swoszowice, Kraków, małopolskie","Babinicza, Kliny, Swoszowice, Kraków, małopolskie","Babinicza, Kliny Zacisze, Kliny, Swoszowice, Kraków, województwo małopolskie, 30-389, Polska",50.001137,19.899539
"rynek Kleparski, Kleparz, Stare Miasto, Kraków, małopolskie","rynek Kleparski, Kleparz, Stare Miasto, Kraków, małopolskie","Rynek Kleparski, Krzywa, Kleparz, Stare Miasto, Kraków, województwo małopolskie, 31-151, Polska",50.06738485,19.94108932130755
"Rydlówka, Ludwinów, Kraków, małopolskie","Rydlówka, Ludwinów, Kraków, małopolskie","Rydlówka, 28, Włodzimierza Tetmajera, Bronowice Małe, Bronowice, Kraków, województwo małopolskie, 31-398, Polska",50.08784005,19.87805496140262
"Bytomska, Nowa Wieś, Krowodrza, Kraków, małopolskie","Bytomska, Nowa Wieś, Krowodrza, Kraków, małopolskie","Bytomska, Nowa Wieś, Krowodrza, Kraków, województwo małopolskie, 30-079, Polska",50.074198,19.9173644
"os. Bohaterów Września, Mistrzejowice, Mistrzejowice, Kraków, małopolskie","os. Bohaterów Września, Mistrzejowice, Mistrzejowice, Kraków, małopolskie","Osiedle Bohaterów Września, Mistrzejowice, Kraków, województwo małopolskie, Polska",50.098804,20.009940791706967
"Dąbrowskiej, Bieńczyce, Kraków, małopolskie","Dąbrowskiej, Bieńczyce, Kraków, małopolskie","XI Liceum Ogólnokształcące im. Marii Dąbrowskiej, Kocmyrzowska, Osiedle Przy Arce, Bieńczyce, Kraków, województwo małopolskie, 31-947, Polska",50.08103725,20.032636213009773
"Kolejowa, Podgórze, Kraków, małopolskie","Kolejowa, Podgórze, Kraków, małopolskie","Kolejowa, Kabel, Podgórze, Kraków, województwo małopolskie, 30-813, Polska",50.0288686,19.9889498
"Retoryka, Stare Miasto, Kraków, małopolskie","Retoryka, Stare Miasto, Kraków, małopolskie","Retoryka, Nowy Świat, Stare Miasto, Kraków, województwo małopolskie, 31-107, Polska",50.0580305,19.9286712
"Krowoderska, Piasek, Stare Miasto, Kraków, małopolskie","Krowoderska, Piasek, Stare Miasto, Kraków, małopolskie","Krowoderska, Piasek, Stare Miasto, Kraków, województwo małopolskie, 31-141, Polska",50.0675007,19.9377243
"Polonijna, Kozłówka, Bieżanów-Prokocim, Kraków, małopolskie","Polonijna, Kozłówka, Bieżanów-Prokocim, Kraków, małopolskie","Polonijna, Kozłówka, Bieżanów-Prokocim, Kraków, województwo małopolskie, 30-667, Polska",50.0158029,19.9881927
"Kapelanka, Zakrzówek, Dębniki, Kraków, małopolskie","Kapelanka, Zakrzówek, Dębniki, Kraków, małopolskie","Kapelanka, Zakrzówek, Dębniki, Kraków, województwo małopolskie, 30-314, Polska",50.0448119,19.9217392
"Reduta 11, Prądnik Czerwony, Prądnik Czerwony, Kraków, małopolskie","Reduta 11, Prądnik Czerwony, Prądnik Czerwony, Kraków, małopolskie","11, Reduta, Prądnik Czerwony, Kraków, województwo małopolskie, 31-421, Polska",50.09497635,19.977047958515577
"Reja, Prądnik Biały, Kraków, małopolskie","Reja, Prądnik Biały, Kraków, małopolskie","Mikołaja Reja, Osiedle Żabiniec, Prądnik Biały, Kraków, województwo małopolskie, 31-215, Polska",50.086051,19.9433075
"Macieja Słomczyńskiego, Górka Narodowa, Prądnik Biały, Kraków, małopolskie","Macieja Słomczyńskiego, Górka Narodowa, Prądnik Biały, Kraków, małopolskie","Macieja Słomczyńskiego, Górka Narodowa, Prądnik Biały, Kraków, województwo małopolskie, 31-220, Polska",50.0986096,19.95604
"Domagały | 3, Złocień, Bieżanów-Prokocim, Kraków, małopolskie","Domagały | 3, Złocień, Bieżanów-Prokocim, Kraków, małopolskie","3, Mariana Domagały, Złocień, Bieżanów-Prokocim, Kraków, województwo małopolskie, 30-798, Polska",50.03082215,20.051273110250463
"Radzikowskiego, Krowodrza, Kraków, małopolskie","Radzikowskiego, Krowodrza, Kraków, małopolskie","Walerego Eljasza-Radzikowskiego, Azory, Prądnik Biały, Kraków, województwo małopolskie, 31-307, Polska",50.0823872,19.9154562
"Odlewnicza, Dzielnica VI Bronowice, Kraków, małopolskie","Odlewnicza, Dzielnica VI Bronowice, Kraków, małopolskie","Odlewnicza, Małe Błonia, Krowodrza, Kraków, województwo małopolskie, 30-142, Polska",50.0707707,19.8905322
"al. Juliusza Słowackiego, Nowa Wieś, Krowodrza, Kraków, małopolskie","al. Juliusza Słowackiego, Nowa Wieś, Krowodrza, Kraków, małopolskie","Aleja Juliusza Słowackiego, Nowa Wieś, Krowodrza, Kraków, województwo małopolskie, 31-159, Polska",50.0712683,19.9293208
"Mazowiecka - mieszkanie idealne pod inwestycję, Krowodrza, Krowodrza, Kraków, małopolskie","Mazowiecka - mieszkanie idealne pod inwestycję, Krowodrza, Krowodrza, Kraków, małopolskie","Mazowiecka, Nowy Kleparz, Krowodrza, Kraków, województwo małopolskie, 30-007, Polska",50.0732377,19.9302296
"Mały Płaszów, Płaszów, Podgórze, Kraków, małopolskie","Mały Płaszów, Płaszów, Podgórze, Kraków, małopolskie","Mały Płaszów, Płaszów, Podgórze, Kraków, województwo małopolskie, 30-716, Polska",50.040506,20.003331
"Pana Tadeusza, Zabłocie, Podgórze, Kraków, małopolskie","Pana Tadeusza, Zabłocie, Podgórze, Kraków, małopolskie","Pana Tadeusza, Zabłocie, Podgórze, Kraków, województwo małopolskie, 30-727, Polska",50.0465418,19.9748264
"Kurczaba, Dzielnica XII Bieżanów-Prokocim, Kraków, małopolskie","Kurczaba, Dzielnica XII Bieżanów-Prokocim, Kraków, małopolskie","Jana Kurczaba, Nowy Prokocim, Prokocim, Bieżanów-Prokocim, Kraków, województwo małopolskie, 30-868, Polska",50.0137338,20.0074091
"Balicka, Bronowice, Kraków, małopolskie","Balicka, Bronowice, Kraków, małopolskie","Balicka, Mydlniki, Bronowice, Kraków, województwo małopolskie, 30-198, Polska",50.081372,19.858348
"Bronowice Wielkie, Prądnik Biały, Kraków, małopolskie","Bronowice Wielkie, Prądnik Biały, Kraków, małopolskie","Bronowice Wielkie, Prądnik Biały, Kraków, województwo małopolskie, Polska",50.0944444,19.8822222
"Tetmajera, Prądnik Biały, Kraków, małopolskie","Tetmajera, Prądnik Biały, Kraków, małopolskie","Park Rzeczny im. Włodzimierza Tetmajera, Bronowice, Kraków, gmina Zabierzów, powiat krakowski, województwo małopolskie, Polska",50.09394855,19.864179582411168
"os. Willowe, Nowa Huta, Kraków, małopolskie","os. Willowe, Nowa Huta, Kraków, małopolskie","Osiedle Willowe, Nowa Huta, Kraków, województwo małopolskie, Polska",50.0721963,20.0500073
"Juliusza Lea, Nowa Wieś, Krowodrza, Kraków, małopolskie","Juliusza Lea, Nowa Wieś, Krowodrza, Kraków, małopolskie","Juliusza Lea, Nowa Wieś, Krowodrza, Kraków, województwo małopolskie, 30-046, Polska",50.0694267,19.9231675
"Piasta Kołodzieja, Bohaterów Września, Kraków, małopolskie","Piasta Kołodzieja, Bohaterów Września, Kraków, małopolskie","Piasta Kołodzieja, Mistrzejowice, Kraków, województwo małopolskie, 31-620, Polska",50.0956129,20.0127952
"Sienkiewicza, Krowodrza, Kraków, małopolskie","Sienkiewicza, Krowodrza, Kraków, małopolskie","Henryka Sienkiewicza, Nowy Kleparz, Krowodrza, Kraków, województwo małopolskie, 30-015, Polska",50.0739307,19.9284874
"Osiedle Bohaterów Września, Bohaterów Września, Kraków, małopolskie","Osiedle Bohaterów Września, Bohaterów Września, Kraków, małopolskie","Osiedle Bohaterów Września, Mistrzejowice, Kraków, województwo małopolskie, Polska",50.098804,20.009940791706967
"Ściegiennego, Kraków, małopolskie","Ściegiennego, Kraków, małopolskie","Księdza Piotra Ściegiennego, Osiedle Medyków, Prokocim, Bieżanów-Prokocim, Kraków, województwo małopolskie, 30-809, Polska",50.0158392,19.9978631
"Powały z Taczewa 4, Piaski Wielkie, Podgórze Duchackie, Kraków, małopolskie","Powały z Taczewa 4, Piaski Wielkie, Podgórze Duchackie, Kraków, małopolskie","4, Powały z Taczewa, Poręba, Piaski Wielkie, Podgórze Duchackie, Kraków, województwo małopolskie, 30-669, Polska",50.00613535,19.985170941337856
"Krowoderskich Zuchów, Krowodrza, Kraków, małopolskie","Krowoderskich Zuchów, Krowodrza, Kraków, małopolskie","Krowoderskich Zuchów, Krowodrza Górka, Prądnik Biały, Kraków, województwo małopolskie, 31-271, Polska",50.0838836,19.930691
"Tetmajera, Bronowice, Kraków, małopolskie","Tetmajera, Bronowice, Kraków, małopolskie","Park Rzeczny im. Włodzimierza Tetmajera, Bronowice, Kraków, gmina Zabierzów, powiat krakowski, województwo małopolskie, Polska",50.09394855,19.864179582411168
"Wenecja, Stare Miasto, Kraków, małopolskie","Wenecja, Stare Miasto, Kraków, małopolskie","Wenecja, Piasek, Stare Miasto, Kraków, województwo małopolskie, 31-117, Polska",50.0612135,19.9259089
"Łokietka /ul. Oboźna, Krowodrza, Krowodrza, Kraków, małopolskie","Łokietka /ul. Oboźna, Krowodrza, Krowodrza, Kraków, małopolskie","Oboźna, Nowy Kleparz, Krowodrza, Kraków, województwo małopolskie, 30-010, Polska",50.0797998,19.9287252
"Huculska, Borek Fałęcki, Łagiewniki-Borek Fałęcki, Kraków, małopolskie","Huculska, Borek Fałęcki, Łagiewniki-Borek Fałęcki, Kraków, małopolskie","Huculska, Borek Fałęcki, Łagiewniki-Borek Fałęcki, Kraków, województwo małopolskie, 30-413, Polska",50.0220136,19.924323
"Skowronia, Wola Duchacka, Kraków, małopolskie","Skowronia, Wola Duchacka, Kraków, małopolskie","Skowronia, Wola Duchacka, Podgórze Duchackie, Kraków, województwo małopolskie, 30-650, Polska",50.025282,19.9667131
"Złocień, Kraków, małopolskie","Złocień, Kraków, małopolskie","Złocień, Bieżanów-Prokocim, Kraków, województwo małopolskie, Polska",50.0217136,20.0511722
"Piaskowa, Dzielnica VI Bronowice, Kraków, małopolskie","Piaskowa, Dzielnica VI Bronowice, Kraków, małopolskie","Piaskowa, Bronowice Wielkie, Prądnik Biały, Kraków, województwo małopolskie, 31-349, Polska",50.0955487,19.8983779
"Laskowa, Bieżanów, Bieżanów-Prokocim, Kraków, małopolskie","Laskowa, Bieżanów, Bieżanów-Prokocim, Kraków, małopolskie","Laskowa, Osiedle Nowy Bieżanów-Północ, Bieżanów, Bieżanów-Prokocim, Kraków, województwo małopolskie, 30-852, Polska",50.0219703,20.0222779
"Osiedle Centrum A, Nowa Huta, Kraków, małopolskie","Osiedle Centrum A, Nowa Huta, Kraków, małopolskie","Osiedle Centrum A, Nowa Huta, Kraków, województwo małopolskie, 31-923, Polska",50.0720051,20.0409261
"Osiedle Zielone, Nowa Huta, Nowa Huta, Kraków, małopolskie","Osiedle Zielone, Nowa Huta, Nowa Huta, Kraków, małopolskie","Osiedle Zielone, Nowa Huta, Kraków, województwo małopolskie, Polska",50.0795971,20.0426044
"Jabłonkowska, Krowodrza, Kraków, małopolskie","Jabłonkowska, Krowodrza, Kraków, małopolskie","Jabłonkowska, Osiedle Widok-Zarzecze, Osiedle Widok, Bronowice, Kraków, województwo małopolskie, 30-139, Polska",50.0788926,19.8881429
"Jana Kiepury, Bieżanów, Bieżanów-Prokocim, Kraków, małopolskie","Jana Kiepury, Bieżanów, Bieżanów-Prokocim, Kraków, małopolskie","Jana Kiepury, Bieżanów, Bieżanów-Prokocim, Kraków, województwo małopolskie, 30-864, Polska",50.0087226,20.0242585
"Widok, Bronowice, Bronowice, Kraków, małopolskie","Widok, Bronowice, Bronowice, Kraków, małopolskie","Widok, Bronowice, Kraków, województwo małopolskie, Polska",50.07735735,19.89067980886145
"Orawska, Podgórze, Kraków, małopolskie","Orawska, Podgórze, Kraków, małopolskie","Orawska, Stare Podgórze, Podgórze, Kraków, województwo małopolskie, 30-501, Polska",50.0410216,19.9383837
"Osiedle Józefa Strusia, Strusia, Kraków, małopolskie","Osiedle Józefa Strusia, Strusia, Kraków, małopolskie","Osiedle Józefa Strusia, Bieńczyce, Kraków, województwo małopolskie, Polska",50.08805495,20.01047322583184
"św. Agnieszki, Stradom, Stare Miasto, Kraków, małopolskie","św. Agnieszki, Stradom, Stare Miasto, Kraków, małopolskie","Świętej Agnieszki, Stradom, Stare Miasto, Kraków, województwo małopolskie, 31-068, Polska",50.0524852,19.9402387
"Odlewnicza, Wola Justowska, Kraków, małopolskie","Odlewnicza, Wola Justowska, Kraków, małopolskie","Odlewnicza, Małe Błonia, Krowodrza, Kraków, województwo małopolskie, 30-133, Polska",50.0703952,19.8996828
"Sosnowiecka 32, Bronowice Wielkie, Prądnik Biały, Kraków, małopolskie","Sosnowiecka 32, Bronowice Wielkie, Prądnik Biały, Kraków, małopolskie","32D, Sosnowiecka, Bronowice Wielkie, Prądnik Biały, Kraków, województwo małopolskie, 31-345, Polska",50.0923104,19.889360468723144
"Miłkowskiego – 47, Ruczaj, Dębniki, Kraków, małopolskie","Miłkowskiego – 47, Ruczaj, Dębniki, Kraków, małopolskie","Zygmunta Miłkowskiego, Osiedle Ruczaj-Zaborze, Ruczaj, Dębniki, Kraków, województwo małopolskie, 30-349, Polska",50.028767,19.9181041
"Berka Joselewicza, Stare Miasto, Stare Miasto, Kraków, małopolskie","Berka Joselewicza, Stare Miasto, Stare Miasto, Kraków, małopolskie","Berka Joselewicza, Kazimierz, Stare Miasto, Kraków, województwo małopolskie, 30-110, Polska",50.0550713,19.947709
"Gajówka, Przegorzały, Kraków, małopolskie","Gajówka, Przegorzały, Kraków, małopolskie","Gajówka, Przegorzały, Zwierzyniec, Kraków, województwo małopolskie, 30-250, Polska",50.0459849,19.8578545
"Meissnera, Rakowice, Kraków, małopolskie","Meissnera, Rakowice, Kraków, małopolskie","Janusza Meissnera, Ugorek, Rakowice, Prądnik Czerwony, Kraków, województwo małopolskie, 31-465, Polska",50.0796912,19.9749499
"os. Sportowe, Nowa Huta, Nowa Huta, Kraków, małopolskie","os. Sportowe, Nowa Huta, Nowa Huta, Kraków, małopolskie","Osiedle Sportowe, Nowa Huta, Kraków, województwo małopolskie, Polska",50.0814523,20.0436888
"Podhalańska, Ruczaj, Kraków, małopolskie","Podhalańska, Ruczaj, Kraków, małopolskie","Podhalańska, Zaborze, Ruczaj, Dębniki, Kraków, województwo małopolskie, 30-430, Polska",50.0217426,19.9173734
"Osiedle Willowe, Willowe, Kraków, małopolskie","Osiedle Willowe, Willowe, Kraków, małopolskie","Osiedle Willowe, Nowa Huta, Kraków, województwo małopolskie, Polska",50.0721963,20.0500073
"Osiedle Albertyńskie, Albertyńskie, Kraków, małopolskie","Osiedle Albertyńskie, Albertyńskie, Kraków, małopolskie","Osiedle Albertyńskie, Bieńczyce, Kraków, województwo małopolskie, Polska",50.0814309,20.0176277
"os. 2 Pułku Lotniczego, Czyżyny, Czyżyny, Kraków, małopolskie","os. 2 Pułku Lotniczego, Czyżyny, Czyżyny, Kraków, małopolskie","Osiedle 2 Pułku Lotniczego, Czyżyny, Kraków, województwo małopolskie, Polska",50.0776407,20.0072081
"Mieczysława Karłowicza, Nowa Wieś, Krowodrza, Kraków, małopolskie","Mieczysława Karłowicza, Nowa Wieś, Krowodrza, Kraków, małopolskie","Mieczysława Karłowicza, Nowa Wieś, Krowodrza, Kraków, województwo małopolskie, 30-047, Polska",50.0678844,19.9217352
"Cienista 92, Bieńczyce, Bieńczyce, Kraków, małopolskie","Cienista 92, Bieńczyce, Bieńczyce, Kraków, małopolskie","92, Cienista, Osiedle Przy Arce, Bieńczyce, Kraków, województwo małopolskie, 31-831, Polska",50.0862394,20.029883152070383
"Jakuba Bojki, Kurdwanów, Podgórze Duchackie, Kraków, małopolskie","Jakuba Bojki, Kurdwanów, Podgórze Duchackie, Kraków, małopolskie","Jakuba Bojki, Kurdwanów, Podgórze Duchackie, Kraków, województwo małopolskie, 30-647, Polska",50.0069552,19.9645207
"Darasza, Bieżanów-Prokocim, Kraków, małopolskie","Darasza, Bieżanów-Prokocim, Kraków, małopolskie","Wojciecha Darasza, Szutry, Prokocim, Bieżanów-Prokocim, Kraków, województwo małopolskie, 30-805, Polska",50.0256615,19.9946913
"Królowej Jadwigi, Wola Justowska, Kraków, małopolskie","Królowej Jadwigi, Wola Justowska, Kraków, małopolskie","Królowej Jadwigi, Wola Justowska, Zwierzyniec, Kraków, województwo małopolskie, 30-219, Polska",50.0648549,19.8796881
"plac Wolnica, Kazimierz, Stare Miasto, Kraków, małopolskie","plac Wolnica, Kazimierz, Stare Miasto, Kraków, małopolskie","Plac Wolnica, Kazimierz, Stare Miasto, Kraków, województwo małopolskie, 31-062, Polska",50.04878925,19.94411589466289
"Do Przystani, Przegorzały, Zwierzyniec, Kraków, małopolskie","Do Przystani, Przegorzały, Zwierzyniec, Kraków, małopolskie","Do Przystani, Przegorzały, Zwierzyniec, Kraków, województwo małopolskie, 30-254, Polska",50.0438255,19.8890371
"Majora Łupaszki, Mydlniki, Bronowice, Kraków, małopolskie","Majora Łupaszki, Mydlniki, Bronowice, Kraków, małopolskie","Majora Łupaszki, Mydlniki, Bronowice, Kraków, województwo małopolskie, 30-198, Polska",50.0858787,19.852248
"Czarnogórska, Kurdwanów, Kraków, małopolskie","Czarnogórska, Kurdwanów, Kraków, małopolskie","Czarnogórska, Wola Duchacka, Podgórze Duchackie, Kraków, województwo małopolskie, 30-638, Polska",50.0197183,19.9709187
"rtm. Zbigniewa Dunin-Wąsowicza, Zwierzyniec, Zwierzyniec, Kraków, małopolskie","rtm. Zbigniewa Dunin-Wąsowicza, Zwierzyniec, Zwierzyniec, Kraków, małopolskie","Rotmistrza Zbigniewa Dunin-Wąsowicza, Półwsie Zwierzynieckie, Zwierzyniec, Kraków, województwo małopolskie, 30-112, Polska",50.0567692,19.92248
"Osiedle Wandy, Wandy, Kraków, małopolskie","Osiedle Wandy, Wandy, Kraków, małopolskie","Osiedle Wandy, Nowa Huta, Kraków, województwo małopolskie, Polska",50.070316,20.0488141
"Długa, Śródmieście, Kraków, małopolskie","Długa, Śródmieście, Kraków, małopolskie","Długa, Kleparz, Stare Miasto, Kraków, województwo małopolskie, 30-004, Polska",50.0724492,19.9358475
"Konecznego, Prądnik Biały, Kraków, małopolskie","Konecznego, Prądnik Biały, Kraków, małopolskie","Feliksa Konecznego, Osiedle Żabiniec, Prądnik Biały, Kraków, województwo małopolskie, 30-016, Polska",50.0842951,19.9419166
"Aleja Pokoju, Grzegórzki, Grzegórzki, Kraków, małopolskie","Aleja Pokoju, Grzegórzki, Grzegórzki, Kraków, małopolskie","Aleja Pokoju, Dąbie, Grzegórzki, Kraków, województwo małopolskie, 31-557, Polska",50.0593942,19.9760994
"Meiera, Prądnik Czerwony, Kraków, małopolskie","Meiera, Prądnik Czerwony, Kraków, małopolskie","Księdza Józefa Meiera, Górka Narodowa, Prądnik Biały, Kraków, województwo małopolskie, 31-241, Polska",50.0988387,19.9704163
"Szablowskiego, Bronowice, Bronowice, Kraków, małopolskie","Szablowskiego, Bronowice, Bronowice, Kraków, małopolskie","Jerzego Szablowskiego, Osiedle Widok-Zarzecze, Bronowice, Kraków, województwo małopolskie, 30-127, Polska",50.0766632,19.8936989
"Gdańska, Śródmieście, Kraków, małopolskie","Gdańska, Śródmieście, Kraków, małopolskie","Gdańska, Wiśniowa, Olsza, Prądnik Czerwony, Kraków, województwo małopolskie, 31-411, Polska",50.0831379,19.9590919
"Górników, Kraków, małopolskie","Górników, Kraków, małopolskie","Górników, Stara Wieś, Prokocim, Bieżanów-Prokocim, Kraków, województwo małopolskie, 30-819, Polska",50.0229758,19.9952938
"Piaszczysta, Krowodrza, Kraków, małopolskie","Piaszczysta, Krowodrza, Kraków, małopolskie","Piaszczysta, Prądnik Biały, Kraków, województwo małopolskie, Polska",50.09673045,19.92813680697165
"Rozalii Celakówny, Bieńczyce, Bieńczyce, Kraków, małopolskie","Rozalii Celakówny, Bieńczyce, Bieńczyce, Kraków, małopolskie","Rozalii Celakówny, Bieńczyce, Kraków, województwo małopolskie, 31-808, Polska",50.0883586,20.0099779
"mrj.Łupaszki, Mydlniki, Bronowice, Kraków, małopolskie","mrj.Łupaszki, Mydlniki, Bronowice, Kraków, małopolskie","Majora Łupaszki, Bronowice Małe, Bronowice, Kraków, województwo małopolskie, 31-080, Polska",50.0908498,19.8650084
"Rakowicka, Grzegórzki, Kraków, małopolskie","Rakowicka, Grzegórzki, Kraków, małopolskie","Rakowicka, Osiedle Oficerskie, Grzegórzki, Kraków, województwo małopolskie, 31-509, Polska",50.0687346,19.9529591
"Jordanowska, Bronowice Wielkie, Prądnik Biały, Kraków, małopolskie","Jordanowska, Bronowice Wielkie, Prądnik Biały, Kraków, małopolskie","Jordanowska, Bronowice Wielkie, Prądnik Biały, Kraków, województwo małopolskie, 31-324, Polska",50.0950181,19.9116021
"Sołtysowska, Kraków, małopolskie","Sołtysowska, Kraków, małopolskie","Sołtysowska, Zawsie, Łęg, Czyżyny, Kraków, województwo małopolskie, 31-589, Polska",50.0611643,20.0237816
"Zaułek Wileński, Olsza, Kraków, małopolskie","Zaułek Wileński, Olsza, Kraków, małopolskie","Zaułek Wileński, Wiśniowa, Olsza, Prądnik Czerwony, Kraków, województwo małopolskie, 31-413, Polska",50.0825448,19.953225
"Olszanicka, Wola Justowska, Kraków, małopolskie","Olszanicka, Wola Justowska, Kraków, małopolskie","Olszanicka, Olszanica, Bory Cholerzyńskie, Zwierzyniec, Kraków, gmina Liszki, powiat krakowski, województwo małopolskie, 32-060, Polska",50.0621282,19.8046529
"Rączna, Rybitwy, Kraków, małopolskie","Rączna, Rybitwy, Kraków, małopolskie","Rączna, Rybitwy, Podgórze, Kraków, województwo małopolskie, 30-740, Polska",50.042295,20.0489279
"os. Kościuszkowskie, Wandy, Kraków, małopolskie","os. Kościuszkowskie, Wandy, Kraków, małopolskie","Osiedle Kościuszkowskie, Bieńczyce, Kraków, województwo małopolskie, Polska",50.0828417,20.0139522
"Stare Podgórze, Podgórze, Kraków, małopolskie","Stare Podgórze, Podgórze, Kraków, małopolskie","Stare Podgórze, Podgórze, Kraków, województwo małopolskie, Polska",50.0444203,19.9493098
"Plac Bohaterów Getta - okolice, Stare Podgórze, Podgórze, Kraków, małopolskie","Plac Bohaterów Getta - okolice, Stare Podgórze, Podgórze, Kraków, małopolskie","Plac Bohaterów Getta, Stare Podgórze, Podgórze, Kraków, województwo małopolskie, 30-527, Polska",50.04652365,19.9542679
"Józefa Łepkowskiego 5, Prądnik Czerwony, Prądnik Czerwony, Kraków, małopolskie","Józefa Łepkowskiego 5, Prądnik Czerwony, Prądnik Czerwony, Kraków, małopolskie","5, Józefa Łepkowskiego, Prądnik Czerwony, Kraków, województwo małopolskie, 31-423, Polska",50.08971055,19.96178087906296
"Armii Krajowej - okolice, Małe Błonia, Krowodrza, Kraków, małopolskie","Armii Krajowej - okolice, Małe Błonia, Krowodrza, Kraków, małopolskie","Armii Krajowej, Osiedle Widok-Zarzecze, Bronowice, Kraków, województwo małopolskie, 30-139, Polska",50.0801869,19.8901332
"Dworska, Dębniki, Kraków, małopolskie","Dworska, Dębniki, Kraków, małopolskie","Dworska, Osiedle Podwawelskie, Ludwinów, Dębniki, Kraków, województwo małopolskie, 30-312, Polska",50.0446491,19.9259657
"Turniejowa, Dzielnica XIII Podgórze, Kraków, małopolskie","Turniejowa, Dzielnica XIII Podgórze, Kraków, małopolskie","Turniejowa, Wola Duchacka, Podgórze Duchackie, Kraków, województwo małopolskie, 30-656, Polska",50.017289,19.9594847
"Jaremy, Azory, Kraków, małopolskie","Jaremy, Azory, Kraków, małopolskie","Marii Jaremy, Osiedle Azory, Prądnik Biały, Kraków, województwo małopolskie, 31-319, Polska",50.0875342,19.9048884
"Masarska 6, Grzegórzki, Grzegórzki, Kraków, małopolskie","Masarska 6, Grzegórzki, Grzegórzki, Kraków, małopolskie","6, Masarska, Grzegórzki, Kraków, województwo małopolskie, 31-534, Polska",50.0553484,19.9549624
"Odlewnicza, Krowodrza, Kraków, małopolskie","Odlewnicza, Krowodrza, Kraków, małopolskie","Odlewnicza, Małe Błonia, Krowodrza, Kraków, województwo małopolskie, 30-133, Polska",50.0703952,19.8996828
"Dębniki, Dębniki, Kraków, małopolskie","Dębniki, Dębniki, Kraków, małopolskie","Dębniki, Kraków, województwo małopolskie, 30-395, Polska",50.0201677,19.8769344
"Kremerowska, Piasek, Stare Miasto, Kraków, małopolskie","Kremerowska, Piasek, Stare Miasto, Kraków, małopolskie","Kremerowska, Piasek, Stare Miasto, Kraków, województwo małopolskie, 31-130, Polska",50.0678798,19.9296418
"os. Osiedle Piastów, Mistrzejowice, Mistrzejowice, Kraków, małopolskie","os. Osiedle Piastów, Mistrzejowice, Mistrzejowice, Kraków, małopolskie","Osiedle Piastów, Mistrzejowice, Kraków, województwo małopolskie, Polska",50.1003776,20.02101742976312
"Janowa Wola, Podgórze, Kraków, małopolskie","Janowa Wola, Podgórze, Kraków, małopolskie","Janowa Wola, Stare Podgórze, Podgórze, Kraków, województwo małopolskie, 30-550, Polska",50.0465885,19.9566517
"Osiedle Na Lotnisku, Bieńczyce, Kraków, małopolskie","Osiedle Na Lotnisku, Bieńczyce, Kraków, małopolskie","Osiedle Na Lotnisku, Bieńczyce, Kraków, województwo małopolskie, Polska",50.086931,20.01693104878946
"Krowoderska, Stare Miasto, Kraków, małopolskie","Krowoderska, Stare Miasto, Kraków, małopolskie","Krowoderska, Kleparz, Stare Miasto, Kraków, województwo małopolskie, 31-142, Polska",50.0689381,19.9368663
"Pszenna, Wola Duchacka, Podgórze Duchackie, Kraków, małopolskie","Pszenna, Wola Duchacka, Podgórze Duchackie, Kraków, małopolskie","Pszenna, Wola Duchacka, Podgórze Duchackie, Kraków, województwo małopolskie, 30-654, Polska",50.0217433,19.9551565
"Galicyjska Kraków, Łęg, Czyżyny, Kraków, małopolskie","Galicyjska Kraków, Łęg, Czyżyny, Kraków, małopolskie","Galicyjska, Błonie-Beszcz, Łęg, Czyżyny, Kraków, województwo małopolskie, 30-580, Polska",50.0567004,20.004607
"Aleja 29 Listopada, Przedmieście Warszawskie, Stare Miasto, Kraków, małopolskie","Aleja 29 Listopada, Przedmieście Warszawskie, Stare Miasto, Kraków, małopolskie","Aleja 29 Listopada, Przedmieście Warszawskie, Stare Miasto, Kraków, województwo małopolskie, 31-401, Polska",50.0750648,19.9467425
"Conrada, Bronowice, Kraków, małopolskie","Conrada, Bronowice, Kraków, małopolskie","Josepha Conrada, Azory, Prądnik Biały, Kraków, województwo małopolskie, 31-385, Polska",50.0873725,19.8926218
"Bochenka, Dzielnica XI Podgórze Duchackie, Kraków, małopolskie","Bochenka, Dzielnica XI Podgórze Duchackie, Kraków, małopolskie","Bochenka, Adama Bochenka, Podlesie, Piaski Wielkie, Podgórze Duchackie, Kraków, województwo małopolskie, 30-691, Polska",50.0130894,19.977710891141733
"Oskara Kolberga, Kleparz, Stare Miasto, Kraków, małopolskie","Oskara Kolberga, Kleparz, Stare Miasto, Kraków, małopolskie","Oskara Kolberga, Kleparz, Stare Miasto, Kraków, województwo małopolskie, 31-161, Polska",50.0716654,19.9347164
"os. Tysiąclecia 8, os. Oświecenia, Ks. Kazimierza Jancarza, ul. Srebrnych Orłów, Mistrzejowice, Mistrzejowice, Kraków, małopolskie","os. Tysiąclecia 8, os. Oświecenia, Ks. Kazimierza Jancarza, ul. Srebrnych Orłów, Mistrzejowice, Mistrzejowice, Kraków, małopolskie","8, Osiedle Tysiąclecia, Mistrzejowice, Kraków, województwo małopolskie, 31-604, Polska",50.0905457,20.000949062770875
"Plac Biskupi, Stare Miasto, Kraków, małopolskie","Plac Biskupi, Stare Miasto, Kraków, małopolskie","Plac Biskupi, Piasek, Stare Miasto, Kraków, województwo małopolskie, Polska",50.06771895,19.936942370871723
"Gdańska 12, Prądnik Czerwony, Kraków, małopolskie","Gdańska 12, Prądnik Czerwony, Kraków, małopolskie","12, Gdańska, Olsza II, Olsza, Prądnik Czerwony, Kraków, województwo małopolskie, 31-411, Polska",50.08144525,19.958060140005426
"Kantorowicka, Wzgórza Krzesławickie, Wzgórza Krzesławickie, Kraków, małopolskie","Kantorowicka, Wzgórza Krzesławickie, Wzgórza Krzesławickie, Kraków, małopolskie","Kantorowicka, Wzgórza Krzesławickie, Kraków, województwo małopolskie, 31-705, Polska",50.0992866,20.0665665
"Grabczaka, Górka Narodowa, Kraków, małopolskie","Grabczaka, Górka Narodowa, Kraków, małopolskie","Ignacego Grabczaka, Górka Narodowa, Prądnik Biały, Kraków, województwo małopolskie, 31-236, Polska",50.0975107,19.9661395
"Krakusa, Stare Podgórze, Podgórze, Kraków, małopolskie","Krakusa, Stare Podgórze, Podgórze, Kraków, małopolskie","Krakusa, Stare Podgórze, Podgórze, Kraków, województwo małopolskie, 30-535, Polska",50.0446274,19.9525206
"Okólna, Kozłówka, Bieżanów-Prokocim, Kraków, małopolskie","Okólna, Kozłówka, Bieżanów-Prokocim, Kraków, małopolskie","Okólna, Kozłówka, Bieżanów-Prokocim, Kraków, województwo małopolskie, 30-667, Polska",50.0164142,19.9837781
"Opolska, Krowodrza Górka, Prądnik Biały, Kraków, małopolskie","Opolska, Krowodrza Górka, Prądnik Biały, Kraków, małopolskie","Opolska, Krowodrza Górka, Prądnik Biały, Kraków, województwo małopolskie, 31-280, Polska",50.0906571,19.9209692
"Domagały, Nowy Bieżanów, Kraków, małopolskie","Domagały, Nowy Bieżanów, Kraków, małopolskie","Mariana Domagały, Złocień, Bieżanów-Prokocim, Kraków, województwo małopolskie, 30-798, Polska",50.0280265,20.0516127
"Rakowickiej, Osiedle Oficerskie, Grzegórzki, Kraków, małopolskie","Rakowickiej, Osiedle Oficerskie, Grzegórzki, Kraków, małopolskie","Rakowicka, Osiedle Oficerskie, Grzegórzki, Kraków, województwo małopolskie, 31-509, Polska",50.0687346,19.9529591
"Starego Dębu, Bronowice Wielkie, Prądnik Biały, Kraków, małopolskie","Starego Dębu, Bronowice Wielkie, Prądnik Biały, Kraków, małopolskie","Starego Dębu, Bronowice Wielkie, Prądnik Biały, Kraków, województwo małopolskie, 31-355, Polska",50.101904,19.8688625
"Jana Kochanowskiego, Piasek, Stare Miasto, Kraków, małopolskie","Jana Kochanowskiego, Piasek, Stare Miasto, Kraków, małopolskie","Jana Kochanowskiego, Piasek, Stare Miasto, Kraków, województwo małopolskie, 31-127, Polska",50.0661222,19.9279237
"Młodzieży 9a, Bieżanów, Bieżanów-Prokocim, Kraków, małopolskie","Młodzieży 9a, Bieżanów, Bieżanów-Prokocim, Kraków, małopolskie","9a, Młodzieży, Jemiołki, Prokocim, Bieżanów-Prokocim, Kraków, województwo małopolskie, 30-829, Polska",50.0237589,20.002396347409324
"Władysława Taklińskiego 47, Opatkowice, Swoszowice, Kraków, małopolskie","Władysława Taklińskiego 47, Opatkowice, Swoszowice, Kraków, małopolskie","47, Władysława Taklińskiego, Zakarczmie, Opatkowice, Swoszowice, Kraków, województwo małopolskie, 30-499, Polska",49.9858191,19.907258197482857
"Nowowiejska, Łobzów, Kraków, małopolskie","Nowowiejska, Łobzów, Kraków, małopolskie","Nowowiejska, Nowa Wieś, Krowodrza, Kraków, województwo małopolskie, 30-081, Polska",50.072548,19.9176869
"Dauna, Wola Duchacka, Kraków, małopolskie","Dauna, Wola Duchacka, Kraków, małopolskie","Alfreda Dauna, Wola Duchacka, Podgórze Duchackie, Kraków, województwo małopolskie, 30-566, Polska",50.0259571,19.9723661
"Studencka 25, Stare Miasto, Kraków, małopolskie","Studencka 25, Stare Miasto, Kraków, małopolskie","25, Studencka, Piasek, Stare Miasto, Kraków, województwo małopolskie, 31-116, Polska",50.0625349,19.928517808559064
"al. Kasztanowa, Chełm, Zwierzyniec, Kraków, małopolskie","al. Kasztanowa, Chełm, Zwierzyniec, Kraków, małopolskie","Aleja Kasztanowa, Wola Justowska, Zwierzyniec, Kraków, województwo małopolskie, 30-227, Polska",50.0662782,19.8588292
"Osiedle Kalinowe, Nowa Huta, Kraków, małopolskie","Osiedle Kalinowe, Nowa Huta, Kraków, małopolskie","Osiedle Kalinowe, Bieńczyce, Kraków, województwo małopolskie, Polska",50.091117,20.013326731946403
"Fenn'a, Stare Miasto, Kraków, małopolskie","Fenn'a, Stare Miasto, Kraków, małopolskie","Sereno Fenn'a, Piasek, Stare Miasto, Kraków, województwo małopolskie, 31-134, Polska",50.0668373,19.9368989
"Romana Kiełkowskiego, Zabłocie, Podgórze, Kraków, małopolskie","Romana Kiełkowskiego, Zabłocie, Podgórze, Kraków, małopolskie","Romana Kiełkowskiego, Zabłocie, Podgórze, Kraków, województwo małopolskie, 30-704, Polska",50.0460596,19.9674482
"os. Avia, Czyżyny, Czyżyny, Kraków, małopolskie","os. Avia, Czyżyny, Czyżyny, Kraków, małopolskie","Osiedle Avia, Czyżyny, Kraków, województwo małopolskie, 31-877, Polska",50.0801226,20.0045001
"Kordiana, Kurdwanów, Kraków, małopolskie","Kordiana, Kurdwanów, Kraków, małopolskie","Kordiana, Osiedle ""Kurdwanów Nowy"", Kurdwanów, Podgórze Duchackie, Kraków, województwo małopolskie, 30-653, Polska",50.0099957,19.9619085
"Grzegórzecka 79, Grzegórzki, Kraków, małopolskie","Grzegórzecka 79, Grzegórzki, Kraków, małopolskie","Grzegórzecka 79, Grzegórzki, Kraków, województwo małopolskie, Polska",50.05740005,19.96717384287709
"Bartla, Kliny Zacisze, Kraków, małopolskie","Bartla, Kliny Zacisze, Kraków, małopolskie","Profesora Wojciecha Marii Bartla, Kliny Zacisze, Kliny, Swoszowice, Kraków, województwo małopolskie, 30-389, Polska",49.9988754,19.8965918
"Macieja Dębskiego, Opatkowice, Swoszowice, Kraków, małopolskie","Macieja Dębskiego, Opatkowice, Swoszowice, Kraków, małopolskie","Macieja Dębskiego, Gaik, Opatkowice, Swoszowice, Kraków, województwo małopolskie, 30-499, Polska",49.9885772,19.9066078
"Ułanów, Rakowice, Prądnik Czerwony, Kraków, małopolskie","Ułanów, Rakowice, Prądnik Czerwony, Kraków, małopolskie","Ułanów, Ugorek, Rakowice, Prądnik Czerwony, Kraków, województwo małopolskie, 31-455, Polska",50.0775911,19.9837694
"al. Pokoju, Czyżyny, Czyżyny, Kraków, małopolskie","al. Pokoju, Czyżyny, Czyżyny, Kraków, małopolskie","Aleja Pokoju, Czyżyny, Kraków, województwo małopolskie, 31-564, Polska",50.0643866,19.9890138
"Osiedle Centrum B, Nowa Huta, Nowa Huta, Kraków, małopolskie","Osiedle Centrum B, Nowa Huta, Nowa Huta, Kraków, małopolskie","Osiedle Centrum B, Nowa Huta, Kraków, województwo małopolskie, Polska",50.0736892,20.0396241
"Ciechocińska, Jugowice, Swoszowice, Kraków, małopolskie","Ciechocińska, Jugowice, Swoszowice, Kraków, małopolskie","Ciechocińska, Jugowice, Swoszowice, Kraków, województwo małopolskie, 30-432, Polska",50.002258,19.9238975
"Grębałowska, Lubocza, Wzgórza Krzesławickie, Kraków, małopolskie","Grębałowska, Lubocza, Wzgórza Krzesławickie, Kraków, małopolskie","Grębałowska, Grębałów, Wzgórza Krzesławickie, Kraków, województwo małopolskie, 31-764, Polska",50.0965835,20.0738385
"Węgierska, Stare Podgórze, Kraków, małopolskie","Węgierska, Stare Podgórze, Kraków, małopolskie","Węgierska, Stare Podgórze, Podgórze, Kraków, województwo małopolskie, 30-500, Polska",50.0454035,19.9509052
"Osiedle Na Wzgórzach, Krzesławice, Kraków, małopolskie","Osiedle Na Wzgórzach, Krzesławice, Kraków, małopolskie","Osiedle Na Wzgórzach, Wzgórza Krzesławickie, Kraków, województwo małopolskie, Polska",50.0954847,20.063112558756423
"Włodzimierza Tetmajera, Bronowice Małe, Bronowice, Kraków, małopolskie","Włodzimierza Tetmajera, Bronowice Małe, Bronowice, Kraków, małopolskie","Włodzimierza Tetmajera, Bronowice Małe, Bronowice, Kraków, województwo małopolskie, 31-080, Polska",50.0950069,19.8663291
"Małego Księcia, Nowa Huta, Kraków, małopolskie","Małego Księcia, Nowa Huta, Kraków, małopolskie","Samorządowe Przedszkole nr 104 im. Małego Księcia, 14, Osiedle Hutnicze, Nowa Huta, Kraków, województwo małopolskie, 31-919, Polska",50.0729546,20.04528631290747
"Ruczaj 40, Ruczaj, Dębniki, Kraków, małopolskie","Ruczaj 40, Ruczaj, Dębniki, Kraków, małopolskie","40, Ruczaj, Osiedle Ruczaj-Zaborze, Ruczaj, Dębniki, Kraków, województwo małopolskie, 30-409, Polska",50.025725050000005,19.918858228540618
"Jana Sobieskiego, Piasek, Stare Miasto, Kraków, małopolskie","Jana Sobieskiego, Piasek, Stare Miasto, Kraków, małopolskie","Jana Sobieskiego, Piasek, Stare Miasto, Kraków, województwo małopolskie, 31-135, Polska",50.0672917,19.931597
"Zakątek, Łobzów, Krowodrza, Kraków, małopolskie","Zakątek, Łobzów, Krowodrza, Kraków, małopolskie","Zakątek, Łobzów, Krowodrza, Kraków, województwo małopolskie, 30-076, Polska",50.0757497,19.914697
"Gustawa Morcinka, Kantorowice, Wzgórza Krzesławickie, Kraków, małopolskie","Gustawa Morcinka, Kantorowice, Wzgórza Krzesławickie, Kraków, małopolskie","Gustawa Morcinka, Kantorowice, Wzgórza Krzesławickie, Kraków, województwo małopolskie, 31-705, Polska",50.104124,20.068193
"Wallenroda, Prokocim, Kraków, małopolskie","Wallenroda, Prokocim, Kraków, małopolskie","Konrada Wallenroda, Nowy Prokocim, Prokocim, Bieżanów-Prokocim, Kraków, województwo małopolskie, 30-867, Polska",50.0176748,20.0011197
"Stanisława Konarskiego, Nowa Wieś, Krowodrza, Kraków, małopolskie","Stanisława Konarskiego, Nowa Wieś, Krowodrza, Kraków, małopolskie","Stanisława Konarskiego, Nowa Wieś, Krowodrza, Kraków, województwo małopolskie, 30-046, Polska",50.0705703,19.9214144
"Domki, Oficerskie, Kraków, małopolskie","Domki, Oficerskie, Kraków, małopolskie","Domki, Osiedle Oficerskie, Grzegórzki, Kraków, województwo małopolskie, 31-521, Polska",50.0753901,19.9591419
"Banacha wykończone bez PCC, Górka Narodowa, Prądnik Biały, Kraków, małopolskie","Banacha wykończone bez PCC, Górka Narodowa, Prądnik Biały, Kraków, małopolskie","Osiedle ""Banacha II"", Górka Narodowa, Prądnik Biały, Kraków, województwo małopolskie, Polska",50.10319875,19.96177495391384
"Wyszyńskiego, Rżąka, Kraków, małopolskie","Wyszyńskiego, Rżąka, Kraków, małopolskie","Księdza Prymasa Stefana Wyszyńskiego, Rżąka, Bieżanów-Prokocim, Kraków, województwo małopolskie, 30-695, Polska",50.0074901,20.0086377
"Weissa, Bronowice, Kraków, małopolskie","Weissa, Bronowice, Kraków, małopolskie","Wojciecha Weissa, Azory, Prądnik Biały, Kraków, województwo małopolskie, 31-339, Polska",50.0862506,19.9092423
"al. Zygmunta Krasińskiego, Zwierzyniec, Zwierzyniec, Kraków, małopolskie","al. Zygmunta Krasińskiego, Zwierzyniec, Zwierzyniec, Kraków, małopolskie","Aleja Zygmunta Krasińskiego, Półwsie Zwierzynieckie, Zwierzyniec, Kraków, województwo małopolskie, 31-111, Polska",50.0582964,19.9255426
"Powstańców na sprzedaż, Mistrzejowice, Mistrzejowice, Kraków, małopolskie","Powstańców na sprzedaż, Mistrzejowice, Mistrzejowice, Kraków, małopolskie","Powstańców, Prądnik Czerwony, Kraków, województwo małopolskie, 31-241, Polska",50.098263,19.9735052
"Osiedle Dywizjonu 303, Czyżyny, Czyżyny, Kraków, małopolskie","Osiedle Dywizjonu 303, Czyżyny, Czyżyny, Kraków, małopolskie","Osiedle Dywizjonu 303, Czyżyny, Kraków, województwo małopolskie, Polska",50.0848148,20.0067417
"Szwed-Śniadowskiej, Kliny Zacisze, Kraków, małopolskie","Szwed-Śniadowskiej, Kliny Zacisze, Kraków, małopolskie","Anny Szwed-Śniadowskiej, Osiedle Za Fortem, Kliny, Swoszowice, Kraków, województwo małopolskie, 30-389, Polska",49.99612635,19.89793185750853
"Kazimierz, Stare Miasto, Kraków, małopolskie","Kazimierz, Stare Miasto, Kraków, małopolskie","Kazimierz, Stare Miasto, Kraków, województwo małopolskie, Polska",50.051855,19.9449466
"Podbrzezie, Kazimierz, Kraków, małopolskie","Podbrzezie, Kazimierz, Kraków, małopolskie","Podbrzezie, Kazimierz, Stare Miasto, Kraków, województwo małopolskie, 31-055, Polska",50.0527298,19.9442186
"Mariana Domagały 41a, Złocień, Bieżanów-Prokocim, Kraków, małopolskie","Mariana Domagały 41a, Złocień, Bieżanów-Prokocim, Kraków, małopolskie","41A, Mariana Domagały, Złocień, Bieżanów-Prokocim, Kraków, województwo małopolskie, 30-741, Polska",50.02416015,20.04983581763158
"Rusznikarska, Krowodrza Górka, Kraków, małopolskie","Rusznikarska, Krowodrza Górka, Kraków, małopolskie","Rusznikarska, Krowodrza Górka, Prądnik Biały, Kraków, województwo małopolskie, 31-261, Polska",50.0841171,19.9270579
"Meiera, Krowodrza, Kraków, małopolskie","Meiera, Krowodrza, Kraków, małopolskie","Księdza Józefa Meiera, Górka Narodowa, Prądnik Biały, Kraków, województwo małopolskie, 31-241, Polska",50.0988387,19.9704163
"Gazowa, Kazimierz, Stare Miasto, Kraków, małopolskie","Gazowa, Kazimierz, Stare Miasto, Kraków, małopolskie","Gazowa, Kazimierz, Stare Miasto, Kraków, województwo małopolskie, 31-060, Polska",50.0488623,19.9466823
"Łąkowa, Prądnik Czerwony, Kraków, małopolskie","Łąkowa, Prądnik Czerwony, Kraków, małopolskie","Łąkowa, Rakowice, Prądnik Czerwony, Kraków, województwo małopolskie, 31-446, Polska",50.0729143,19.9834449
"Przyjaźni Polsko-Węgierskiej, Podgórze Duchackie, Kraków, małopolskie","Przyjaźni Polsko-Węgierskiej, Podgórze Duchackie, Kraków, małopolskie","Przyjaźni Polsko-Węgierskiej, Wola Duchacka, Podgórze Duchackie, Kraków, województwo małopolskie, 30-605, Polska",50.0243743,19.9460158
"Rakowicka, Olsza, Kraków, małopolskie","Rakowicka, Olsza, Kraków, małopolskie","Rakowicka, Osiedle Oficerskie, Grzegórzki, Kraków, województwo małopolskie, 31-509, Polska",50.0687346,19.9529591
"Chocimska, Nowa Wieś, Krowodrza, Kraków, małopolskie","Chocimska, Nowa Wieś, Krowodrza, Kraków, małopolskie","Chocimska, Nowa Wieś, Krowodrza, Kraków, województwo małopolskie, 30-057, Polska",50.0698342,19.9155486
"Seniorów Lotnictwa, Rakowice, Prądnik Czerwony, Kraków, małopolskie","Seniorów Lotnictwa, Rakowice, Prądnik Czerwony, Kraków, małopolskie","Seniorów Lotnictwa, Ugorek, Rakowice, Prądnik Czerwony, Kraków, województwo małopolskie, 31-455, Polska",50.0785435,19.9834069
"Sosnowiecka, Prądnik Biały, Kraków, małopolskie","Sosnowiecka, Prądnik Biały, Kraków, małopolskie","Sosnowiecka, Bronowice Wielkie, Prądnik Biały, Kraków, województwo małopolskie, 31-340, Polska",50.0898227,19.903078
"SIEWNA 2, Prądnik Biały, Prądnik Biały, Kraków, małopolskie","SIEWNA 2, Prądnik Biały, Prądnik Biały, Kraków, małopolskie","2, Siewna, Osiedle Wolfganga Amadeusza Mozarta, Prądnik Biały, Kraków, województwo małopolskie, 31-232, Polska",50.0941143,19.952211952578217
"Zapolskiej, Dzielnica VI Bronowice, Kraków, małopolskie","Zapolskiej, Dzielnica VI Bronowice, Kraków, małopolskie","Gabrieli Zapolskiej, Bronowice, Kraków, województwo małopolskie, 30-126, Polska",50.0766946,19.8980642
"Sempołowskiej, Podgórze Duchackie, Kraków, małopolskie","Sempołowskiej, Podgórze Duchackie, Kraków, małopolskie","Stefanii Sempołowskiej, Wola Duchacka, Podgórze Duchackie, Kraków, województwo małopolskie, 30-655, Polska",50.0193828,19.957427
"Plac Bohaterów Getta, Stare Podgórze, Podgórze, Kraków, małopolskie","Plac Bohaterów Getta, Stare Podgórze, Podgórze, Kraków, małopolskie","Plac Bohaterów Getta, Stare Podgórze, Podgórze, Kraków, województwo małopolskie, 30-527, Polska",50.04652365,19.9542679
"Henryka i Karola Czeczów, Złocień, Bieżanów-Prokocim, Kraków, małopolskie","Henryka i Karola Czeczów, Złocień, Bieżanów-Prokocim, Kraków, małopolskie","Henryka i Karola Czeczów, Złocień, Bieżanów-Prokocim, Kraków, województwo małopolskie, 30-798, Polska",50.0214891,20.053783
"Kordiana/201, Kurdwanów, Podgórze Duchackie, Kraków, małopolskie","Kordiana/201, Kurdwanów, Podgórze Duchackie, Kraków, małopolskie","Kordiana, Osiedle ""Kurdwanów Nowy"", Kurdwanów, Podgórze Duchackie, Kraków, województwo małopolskie, 30-653, Polska",50.0099957,19.9619085
"Klimeckiego, Dzielnica XIII Podgórze, Kraków, małopolskie","Klimeckiego, Dzielnica XIII Podgórze, Kraków, małopolskie","Stanisława Klimeckiego, Zabłocie, Podgórze, Kraków, województwo małopolskie, 30-706, Polska",50.0487047,19.96836
"Sanocka, Wola Duchacka, Podgórze Duchackie, Kraków, małopolskie","Sanocka, Wola Duchacka, Podgórze Duchackie, Kraków, małopolskie","Sanocka, Wola Duchacka, Podgórze Duchackie, Kraków, województwo małopolskie, 30-622, Polska",50.0173255,19.9535859
"Chełmska, Zwierzyniec, Kraków, małopolskie","Chełmska, Zwierzyniec, Kraków, małopolskie","Chełmska, Chełm, Zwierzyniec, Kraków, województwo małopolskie, 30-238, Polska",50.0671869,19.8462439
"Rakowicka, Przedmieście Warszawskie, Stare Miasto, Kraków, małopolskie","Rakowicka, Przedmieście Warszawskie, Stare Miasto, Kraków, małopolskie","Rakowicka, Osiedle Oficerskie, Grzegórzki, Kraków, województwo małopolskie, 31-509, Polska",50.0687346,19.9529591
"Juliusza Lea, Bronowice, Bronowice, Kraków, małopolskie","Juliusza Lea, Bronowice, Bronowice, Kraków, małopolskie","Juliusza Lea, Bronowice, Kraków, województwo małopolskie, 30-133, Polska",50.0724183,19.8986553
"Andrzeja Frycza-Modrzewskiego, Żabiniec, Prądnik Biały, Kraków, małopolskie","Andrzeja Frycza-Modrzewskiego, Żabiniec, Prądnik Biały, Kraków, małopolskie","Andrzeja Frycza-Modrzewskiego, Żabiniec, Prądnik Biały, Kraków, województwo małopolskie, 31-200, Polska",50.0868284,19.9463737
"Lubostroń, Ruczaj, Dębniki, Kraków, małopolskie","Lubostroń, Ruczaj, Dębniki, Kraków, małopolskie","Lubostroń, Ruczaj, Dębniki, Kraków, województwo małopolskie, 30-392, Polska",50.0164056,19.8896205
"Sanocka, Podgórze, Kraków, małopolskie","Sanocka, Podgórze, Kraków, małopolskie","Sanocka, Wola Duchacka, Podgórze Duchackie, Kraków, województwo małopolskie, 30-622, Polska",50.0173255,19.9535859
"Pilotów, Rakowice, Prądnik Czerwony, Kraków, małopolskie","Pilotów, Rakowice, Prądnik Czerwony, Kraków, małopolskie","Pilotów, Rakowice, Prądnik Czerwony, Kraków, województwo małopolskie, 31-462, Polska",50.0776774,19.9703281
"Komuny Paryskiej, Kliny, Kraków, małopolskie","Komuny Paryskiej, Kliny, Kraków, małopolskie","Komuny Paryskiej, Kliny Zacisze, Kliny, Swoszowice, Kraków, województwo małopolskie, 30-389, Polska",49.9994559,19.8945696
"Os. Złocień, Złocień, Kraków, małopolskie","Os. Złocień, Złocień, Kraków, małopolskie","Osiedle Kolejowe, Złocień, Bieżanów-Prokocim, Kraków, województwo małopolskie, 30-758, Polska",50.0264595,20.0392309
"Mieczykowa, Kliny, Swoszowice, Kraków, małopolskie","Mieczykowa, Kliny, Swoszowice, Kraków, małopolskie","Mieczykowa, Osiedle Za Fortem, Kliny, Swoszowice, Kraków, województwo małopolskie, 30-446, Polska",49.9985935,19.9015394
"Gwieździsta, Dzielnica XIII Podgórze, Kraków, małopolskie","Gwieździsta, Dzielnica XIII Podgórze, Kraków, małopolskie","Gwieździsta, Osiedle Szuwarowa, Ruczaj, Dębniki, Kraków, województwo małopolskie, 30-382, Polska",50.0169747,19.9043787
"Klemensiewicza - 16, Olsza, Prądnik Czerwony, Kraków, małopolskie","Klemensiewicza - 16, Olsza, Prądnik Czerwony, Kraków, małopolskie","Zenona Klemensiewicza, Rogatka Warszawska, Olsza, Prądnik Czerwony, Kraków, województwo małopolskie, 31-482, Polska",50.0809595,19.9507548
"Osiedle Wysokie, Nowa Huta, Kraków, małopolskie","Osiedle Wysokie, Nowa Huta, Kraków, małopolskie","Osiedle Wysokie, Bieńczyce, Kraków, województwo małopolskie, 31-818, Polska",50.0893536,20.0195044
"Prokocim, Kraków, małopolskie","Prokocim, Kraków, małopolskie","Prokocim, Bieżanów-Prokocim, Kraków, województwo małopolskie, Polska",50.0226748,19.9921741
"Jagiellońskie, Kraków, małopolskie","Jagiellońskie, Kraków, małopolskie","Osiedle Jagiellońskie, Bieńczyce, Kraków, województwo małopolskie, Polska",50.0886537,20.0243697
"Klemensiewicza, Żabiniec, Kraków, małopolskie","Klemensiewicza, Żabiniec, Kraków, małopolskie","Zenona Klemensiewicza, Rogatka Warszawska, Olsza, Prądnik Czerwony, Kraków, województwo małopolskie, 31-482, Polska",50.0809595,19.9507548
"Sławka, Wola Duchacka, Kraków, małopolskie","Sławka, Wola Duchacka, Kraków, małopolskie","Walerego Sławka, Wola Duchacka, Podgórze Duchackie, Kraków, województwo małopolskie, 30-633, Polska",50.0236618,19.960403
"Piastowska, Mistrzejowice, Mistrzejowice, Kraków, małopolskie","Piastowska, Mistrzejowice, Mistrzejowice, Kraków, małopolskie","Piastowska, Łobzów, Krowodrza, Kraków, województwo małopolskie, 30-124, Polska",50.0756202,19.9061071
"Pułaskiego, Kraków, małopolskie","Pułaskiego, Kraków, małopolskie","Generała Kazimierza Pułaskiego, Dębniki, Kraków, województwo małopolskie, 30-307, Polska",50.0505423,19.9291705
"Żywiecka – 50, Borek Fałęcki, Łagiewniki-Borek Fałęcki, Kraków, małopolskie","Żywiecka – 50, Borek Fałęcki, Łagiewniki-Borek Fałęcki, Kraków, małopolskie","50, Żywiecka, Borek Fałęcki, Łagiewniki-Borek Fałęcki, Kraków, województwo małopolskie, 30-427, Polska",50.01392365,19.915619740291334
"Kordiana, Wola Duchacka, Kraków, małopolskie","Kordiana, Wola Duchacka, Kraków, małopolskie","Kordiana, Osiedle ""Kurdwanów Nowy"", Kurdwanów, Podgórze Duchackie, Kraków, województwo małopolskie, 30-653, Polska",50.0099957,19.9619085
"Jerzmanowskiego, Bieżanów, Kraków, małopolskie","Jerzmanowskiego, Bieżanów, Kraków, małopolskie","Erazma Jerzmanowskiego, Nad Potokiem, Prokocim, Bieżanów-Prokocim, Kraków, województwo małopolskie, 30-870, Polska",50.0116945,20.0106947
"Krowoderska, Śródmieście, Kraków, małopolskie","Krowoderska, Śródmieście, Kraków, małopolskie","Krowoderska, Kleparz, Stare Miasto, Kraków, województwo małopolskie, 31-142, Polska",50.0699442,19.9357048
"Osiedle Dywizjonu 303, Dywizjonu 303, Kraków, małopolskie","Osiedle Dywizjonu 303, Dywizjonu 303, Kraków, małopolskie","Osiedle Dywizjonu 303, Czyżyny, Kraków, województwo małopolskie, Polska",50.0848148,20.0067417
"Kosocicka, Rżąka, Kraków, małopolskie","Kosocicka, Rżąka, Kraków, małopolskie","Kosocicka, Rżąka, Bieżanów-Prokocim, Kraków, województwo małopolskie, 30-865, Polska",50.0058391,20.0158653
"Rzebika, Płaszów, Kraków, małopolskie","Rzebika, Płaszów, Kraków, małopolskie","Józefa Rzebika, Płaszów, Podgórze, Kraków, województwo małopolskie, 30-725, Polska",50.0398889,19.9918425
"Piotra Borowego 35, Zwierzyniec, Zwierzyniec, Kraków, małopolskie","Piotra Borowego 35, Zwierzyniec, Zwierzyniec, Kraków, małopolskie","Piotra Borowego, Zwierzyniec, Kraków, województwo małopolskie, 30-214, Polska",50.0644927,19.890371
"Adama Bochenka 10, Piaski Wielkie, Podgórze Duchackie, Kraków, małopolskie","Adama Bochenka 10, Piaski Wielkie, Podgórze Duchackie, Kraków, małopolskie","Piekarnia-Cukiernia Bochenek, 10, Adama Bochenka, Piaski Nowe, Piaski Wielkie, Podgórze Duchackie, Kraków, województwo małopolskie, 30-693, Polska",50.0111371,19.9751358
"Śliska, Podgórze, Kraków, małopolskie","Śliska, Podgórze, Kraków, małopolskie","Śliska, Stare Podgórze, Podgórze, Kraków, województwo małopolskie, 30-516, Polska",50.039545,19.9411694
"Świętego Jana, Stare Miasto, Stare Miasto, Kraków, małopolskie","Świętego Jana, Stare Miasto, Stare Miasto, Kraków, małopolskie","Świętego Jana, Stare Miasto, Kraków, województwo małopolskie, 31-017, Polska",50.0631412,19.9385853
"Ludwinowska, Stare Podgórze, Podgórze, Kraków, małopolskie","Ludwinowska, Stare Podgórze, Podgórze, Kraków, małopolskie","Ludwinowska, Stare Podgórze, Podgórze, Kraków, województwo małopolskie, 30-503, Polska",50.0437022,19.9408489
"Borowego, Bronowice, Kraków, małopolskie","Borowego, Bronowice, Kraków, małopolskie","Piotra Borowego, Zwierzyniec, Kraków, województwo małopolskie, 30-214, Polska",50.0644927,19.890371
"Szlak 77, Kleparz, Kraków, małopolskie","Szlak 77, Kleparz, Kraków, małopolskie","WBK, 77, Szlak, Kleparz, Stare Miasto, Kraków, województwo małopolskie, 30-901, Polska",50.0702882,19.9440463
"Bartla/Kliny, Kliny, Swoszowice, Kraków, małopolskie","Bartla/Kliny, Kliny, Swoszowice, Kraków, małopolskie","Profesora Wojciecha Marii Bartla, Kliny Zacisze, Kliny, Swoszowice, Kraków, województwo małopolskie, 30-389, Polska",49.9988754,19.8965918
"Juliana Dunajewskiego, Piasek, Stare Miasto, Kraków, małopolskie","Juliana Dunajewskiego, Piasek, Stare Miasto, Kraków, małopolskie","Juliana Dunajewskiego, Piasek, Stare Miasto, Kraków, województwo małopolskie, 31-133, Polska",50.0637679,19.9333618
"Ćwikłowa, Pychowice, Dębniki, Kraków, małopolskie","Ćwikłowa, Pychowice, Dębniki, Kraków, małopolskie","Ćwikłowa, Pychowice, Dębniki, Kraków, województwo małopolskie, 30-377, Polska",50.0365361,19.8887691
"Saska, Płaszów, Kraków, małopolskie","Saska, Płaszów, Kraków, małopolskie","Saska, Zagumnie, Płaszów, Podgórze, Kraków, województwo małopolskie, 30-720, Polska",50.0409028,19.9833069
"Supniewskiego, Grzegórzki, Kraków, małopolskie","Supniewskiego, Grzegórzki, Kraków, małopolskie","Janusza Supniewskiego, Osiedle Oficerskie, Grzegórzki, Kraków, województwo małopolskie, 31-527, Polska",50.0684043,19.968369
"Ceglarska, Dębniki, Kraków, małopolskie","Ceglarska, Dębniki, Kraków, małopolskie","Ceglarska, Zakrzówek, Dębniki, Kraków, województwo małopolskie, 30-346, Polska",50.04242,19.9207729
"Dworska, Kazimierz, Kraków, małopolskie","Dworska, Kazimierz, Kraków, małopolskie","Dworska, Osiedle Podwawelskie, Ludwinów, Dębniki, Kraków, województwo małopolskie, 30-312, Polska",50.0451169,19.9276317
"Gromadzka, Płaszów, Podgórze, Kraków, małopolskie","Gromadzka, Płaszów, Podgórze, Kraków, małopolskie","Gromadzka, Płaszów, Podgórze, Kraków, województwo małopolskie, 30-720, Polska",50.0363616,19.9823222
"Wielicka, Rżąka, Bieżanów-Prokocim, Kraków, małopolskie","Wielicka, Rżąka, Bieżanów-Prokocim, Kraków, małopolskie","Wielicka, Rżąka, Bieżanów-Prokocim, Kraków, województwo małopolskie, 30-696, Polska",50.0053414,20.0193291
"Augustiańska, Kazimierz, Kraków, małopolskie","Augustiańska, Kazimierz, Kraków, małopolskie","Augustiańska, Kazimierz, Stare Miasto, Kraków, województwo małopolskie, 31-064, Polska",50.0489498,19.9419504
"Bronowicka, Bronowice Wielkie, Kraków, małopolskie","Bronowicka, Bronowice Wielkie, Kraków, małopolskie","Bronowicka, Bronowice, Kraków, województwo małopolskie, 30-124, Polska",50.0759556,19.90571
"Zbrojarzy, Kokusowa Przystań, Borek Fałęcki, Łagiewniki-Borek Fałęcki, Kraków, małopolskie","Zbrojarzy, Kokusowa Przystań, Borek Fałęcki, Łagiewniki-Borek Fałęcki, Kraków, małopolskie","Zbrojarzy, Borek Fałęcki, Łagiewniki-Borek Fałęcki, Kraków, województwo małopolskie, 30-418, Polska",50.0185362,19.9306262
"Lirników, Dzielnica XI Podgórze Duchackie, Kraków, małopolskie","Lirników, Dzielnica XI Podgórze Duchackie, Kraków, małopolskie","Lirników, Wola Duchacka, Podgórze Duchackie, Kraków, województwo małopolskie, 30-659, Polska",50.0164207,19.9643471
"Storczykowa, Kurdwanów, Podgórze Duchackie, Kraków, małopolskie","Storczykowa, Kurdwanów, Podgórze Duchackie, Kraków, małopolskie","Storczykowa, Osiedle ""Kurdwanów Nowy"", Kurdwanów, Podgórze Duchackie, Kraków, województwo małopolskie, 30-613, Polska",50.011972,19.9472065
"Kuklińskiego, Dzielnica XIII Podgórze, Kraków, małopolskie","Kuklińskiego, Dzielnica XIII Podgórze, Kraków, małopolskie","Pułkownika Ryszarda Kuklińskiego, Zagumnie, Płaszów, Podgórze, Kraków, województwo małopolskie, 30-727, Polska",50.0441018,19.9736048
"Ułanów - trzypokojowe mieszkanie z garażem, Rakowice, Prądnik Czerwony, Kraków, małopolskie","Ułanów - trzypokojowe mieszkanie z garażem, Rakowice, Prądnik Czerwony, Kraków, małopolskie","Ułanów, Ugorek, Rakowice, Prądnik Czerwony, Kraków, województwo małopolskie, 31-446, Polska",50.0734495,19.9858129
"Na Wzgórzach, Kraków, małopolskie","Na Wzgórzach, Kraków, małopolskie","Na Wzgórzach, 44, Osiedle Na Wzgórzach, Wzgórza Krzesławickie, Kraków, województwo małopolskie, 31-721, Polska",50.09291,20.061041221572488
"Estery - OKAZJA, Kazimierz, Stare Miasto, Kraków, małopolskie","Estery - OKAZJA, Kazimierz, Stare Miasto, Kraków, małopolskie","Estery, Kazimierz, Stare Miasto, Kraków, województwo małopolskie, 31-056, Polska",50.0517933,19.9453427
"Oficerskie, Kraków, małopolskie","Oficerskie, Kraków, małopolskie","Osiedle Oficerskie, Grzegórzki, Kraków, województwo małopolskie, Polska",50.0702734,19.9648082
"Nawojki, Łobzów, Kraków, małopolskie","Nawojki, Łobzów, Kraków, małopolskie","Nawojki, Łobzów, Krowodrza, Kraków, województwo małopolskie, 30-071, Polska",50.0697346,19.9061262
"Leopolda Staffa, ul. Lea, al. Kijowska, Łobzów, Krowodrza, Kraków, małopolskie","Leopolda Staffa, ul. Lea, al. Kijowska, Łobzów, Krowodrza, Kraków, małopolskie","Leopolda Staffa, Łobzów, Krowodrza, Kraków, województwo małopolskie, 30-080, Polska",50.07234,19.9136434
"Nuszkiewicza, Prądnik Czerwony, Kraków, małopolskie","Nuszkiewicza, Prądnik Czerwony, Kraków, małopolskie","Majora Ryszarda Nuszkiewicza, Prądnik Czerwony, Kraków, województwo małopolskie, 31-423, Polska",50.0900018,19.9633695
"Mitery, Stare Podgórze, Kraków, małopolskie","Mitery, Stare Podgórze, Kraków, małopolskie","Stanisława Mitery, Stare Podgórze, Podgórze, Kraków, województwo małopolskie, 30-505, Polska",50.0387673,19.9403193
"Osiedle Hutnicze, Bieńczyce, Kraków, małopolskie","Osiedle Hutnicze, Bieńczyce, Kraków, małopolskie","Osiedle Hutnicze, Nowa Huta, Kraków, województwo małopolskie, Polska",50.0727517,20.0454692
"Edwarda Szymańskiego, Branice, Nowa Huta, Kraków, małopolskie","Edwarda Szymańskiego, Branice, Nowa Huta, Kraków, małopolskie","Edwarda Szymańskiego, Branice, Nowa Huta, Kraków, województwo małopolskie, 31-985, Polska",50.070546,20.1436538
"gen. Juliana Filipowicza, Kurdwanów, Podgórze Duchackie, Kraków, małopolskie","gen. Juliana Filipowicza, Kurdwanów, Podgórze Duchackie, Kraków, małopolskie","Generała Juliana Filipowicza, Osiedle ""Kurdwanów Nowy"", Kurdwanów, Podgórze Duchackie, Kraków, województwo małopolskie, 30-613, Polska",50.0107359,19.9454781
"os. Tysiąclecia, Mistrzejowice, Mistrzejowice, Kraków, małopolskie","os. Tysiąclecia, Mistrzejowice, Mistrzejowice, Kraków, małopolskie","Osiedle Tysiąclecia, Mistrzejowice, Kraków, województwo małopolskie, Polska",50.0917147,20.0012344
"Samozwaniec 33, Wzgórza Krzesławickie, Kraków, małopolskie","Samozwaniec 33, Wzgórza Krzesławickie, Kraków, małopolskie","33, Magdaleny Samozwaniec, Dłubnia, Wzgórza Krzesławickie, Kraków, województwo małopolskie, 31-711, Polska",50.0957751,20.0393939
"Osiedle Wandy 25, Nowa Huta, Nowa Huta, Kraków, małopolskie","Osiedle Wandy 25, Nowa Huta, Nowa Huta, Kraków, małopolskie","25, Osiedle Wandy, Nowa Huta, Kraków, województwo małopolskie, 31-907, Polska",50.07080945,20.05232530046886
"Tomasza, Stare Miasto, Kraków, małopolskie","Tomasza, Stare Miasto, Kraków, małopolskie","Kościół pw. Świętego Tomasza Apostoła, Szpitalna, Stare Miasto, Kraków, województwo małopolskie, 31-024, Polska",50.062474300000005,19.940753678621007
"Ułanów 72, ul. Fiołkowa, al. Jana Pawła II, ul. Pilotów, ul. Pszona, ul. Akacjowa,, Rakowice, Prądnik Czerwony, Kraków, małopolskie","Ułanów 72, ul. Fiołkowa, al. Jana Pawła II, ul. Pilotów, ul. Pszona, ul. Akacjowa,, Rakowice, Prądnik Czerwony, Kraków, małopolskie","72, Ułanów, Ugorek, Rakowice, Prądnik Czerwony, Kraków, województwo małopolskie, 31-460, Polska",50.0811121,19.979225749349908
"Kurzei, Mistrzejowice, Kraków, małopolskie","Kurzei, Mistrzejowice, Kraków, małopolskie","Księdza Józefa Kurzei, Mistrzejowice, Kraków, województwo małopolskie, 31-619, Polska",50.0965798,19.9894546
"Władysława Łokietka, Prądnik Biały, Kraków, małopolskie","Władysława Łokietka, Prądnik Biały, Kraków, małopolskie","Władysława Łokietka, Krowodrza Górka, Prądnik Biały, Kraków, województwo małopolskie, 31-279, Polska",50.0837805,19.9249551
"Dębowa, Dębniki, Dębniki, Kraków, małopolskie","Dębowa, Dębniki, Dębniki, Kraków, małopolskie","Dębowa, Dębniki, Kraków, województwo małopolskie, 30-315, Polska",50.0470963,19.9248842
"Podkowińskiego, Bronowice Nowe, Kraków, małopolskie","Podkowińskiego, Bronowice Nowe, Kraków, małopolskie","Władysława Podkowińskiego, Azory, Prądnik Biały, Kraków, województwo małopolskie, 31-321, Polska",50.0849586,19.8949096
"Królewska -, Nowa Wieś, Krowodrza, Kraków, małopolskie","Królewska -, Nowa Wieś, Krowodrza, Kraków, małopolskie","Królewska, Nowa Wieś, Krowodrza, Kraków, województwo małopolskie, 30-081, Polska",50.0720834,19.9188703
"Aleja Ignacego Daszyńskiego, Grzegórzki, Kraków, małopolskie","Aleja Ignacego Daszyńskiego, Grzegórzki, Kraków, małopolskie","Aleja Ignacego Daszyńskiego, Grzegórzki, Kraków, województwo małopolskie, 31-536, Polska",50.0522169,19.9544966
"Wesele, Bronowice Małe, Kraków, małopolskie","Wesele, Bronowice Małe, Kraków, małopolskie","Wesele, Bronowice, Kraków, województwo małopolskie, 30-127, Polska",50.0756816,19.8954952
"Totus Tuus Tesoro Verde Residence, Białe Morza, Łagiewniki-Borek Fałęcki, Kraków, małopolskie","Totus Tuus Tesoro Verde Residence, Białe Morza, Łagiewniki-Borek Fałęcki, Kraków, małopolskie","Totus Tuus, Białe Morza, Łagiewniki-Borek Fałęcki, Kraków, województwo małopolskie, 30-608, Polska",50.0123898,19.9378801
"Josepha Conrada, Bronowice Wielkie, Prądnik Biały, Kraków, małopolskie","Josepha Conrada, Bronowice Wielkie, Prądnik Biały, Kraków, małopolskie","Josepha Conrada, Bronowice Wielkie, Prądnik Biały, Kraków, województwo małopolskie, 31-385, Polska",50.087761,19.8929919
"Wicherkiewicza, Kliny, Kraków, małopolskie","Wicherkiewicza, Kliny, Kraków, małopolskie","Profesora Bolesława Wiktora Wicherkiewicza, Kliny Zacisze, Kliny, Swoszowice, Kraków, województwo małopolskie, 30-389, Polska",49.9996656,19.8970292
"Pod Stokiem, Wola Justowska, Kraków, małopolskie","Pod Stokiem, Wola Justowska, Kraków, małopolskie","Pod Stokiem, Chełm, Zwierzyniec, Kraków, województwo małopolskie, 30-236, Polska",50.072764,19.8508525
"Salwatorska, Zwierzyniec, Kraków, małopolskie","Salwatorska, Zwierzyniec, Kraków, małopolskie","Salwatorska, Półwsie Zwierzynieckie, Zwierzyniec, Kraków, województwo małopolskie, 30-109, Polska",50.0554056,19.9177113
"Aleksandra Lubomirskiego, Wesoła Wschód, Grzegórzki, Kraków, małopolskie","Aleksandra Lubomirskiego, Wesoła Wschód, Grzegórzki, Kraków, małopolskie","Aleksandra Lubomirskiego, Wesoła II, Grzegórzki, Kraków, województwo małopolskie, 31-509, Polska",50.0678262,19.9528838
"Grunwaldzka, Oficerskie, Kraków, małopolskie","Grunwaldzka, Oficerskie, Kraków, małopolskie","Grunwaldzka, Osiedle Oficerskie, Grzegórzki, Kraków, województwo małopolskie, 31-526, Polska",50.0666444,19.9653308
"Ładna, Grzegórzki, Kraków, małopolskie","Ładna, Grzegórzki, Kraków, małopolskie","Ładna, Rakowice, Prądnik Czerwony, Kraków, województwo małopolskie, 31-444, Polska",50.0715246,19.9780798
"Mackiewicza, Prądnik Biały, Kraków, małopolskie","Mackiewicza, Prądnik Biały, Kraków, małopolskie","Józefa Mackiewicza, Prądnik Biały, Kraków, województwo małopolskie, 31-214, Polska",50.090119,19.9435455
"Zdrowa, Żabiniec, Prądnik Biały, Kraków, małopolskie","Zdrowa, Żabiniec, Prądnik Biały, Kraków, małopolskie","Zdrowa, Żabiniec, Prądnik Biały, Kraków, województwo małopolskie, 31-200, Polska",50.0879753,19.9455547
"al. 29 Listopada, Prądnik Biały, Prądnik Biały, Kraków, małopolskie","al. 29 Listopada, Prądnik Biały, Prądnik Biały, Kraków, małopolskie","Aleja 29 Listopada, Górka Narodowa, Prądnik Biały, Kraków, województwo małopolskie, 31-236, Polska",50.0997677,19.9628389
"Agatowa 33, Złocień, Bieżanów-Prokocim, Kraków, małopolskie","Agatowa 33, Złocień, Bieżanów-Prokocim, Kraków, małopolskie","Biblioteka Kraków, 33, Agatowa, Osiedle Kolejowe, Złocień, Bieżanów-Prokocim, Kraków, województwo małopolskie, 30-798, Polska",50.0225216,20.0481276
"Szpitalna, Stare Miasto, Kraków, małopolskie","Szpitalna, Stare Miasto, Kraków, małopolskie","Szpitalna, Stare Miasto, Kraków, województwo małopolskie, 31-156, Polska",50.0647876,19.942688
"Litewska | 2, Krowodrza, Krowodrza, Kraków, małopolskie","Litewska | 2, Krowodrza, Krowodrza, Kraków, małopolskie","Litewska, Nowy Kleparz, Krowodrza, Kraków, województwo małopolskie, 30-019, Polska",50.0763999,19.9261022
"Kołowa, Krowodrza, Kraków, małopolskie","Kołowa, Krowodrza, Kraków, małopolskie","Kołowa, Bronowice, Kraków, województwo małopolskie, 30-133, Polska",50.0717709,19.8984673
"Ogórkowa, Bieżanów, Kraków, małopolskie","Ogórkowa, Bieżanów, Kraków, małopolskie","Ogórkowa, Osiedle Nowy Bieżanów-Północ, Bieżanów, Bieżanów-Prokocim, Kraków, województwo małopolskie, 30-853, Polska",50.0204225,20.0247101
"Lubelska, Krowodrza, Krowodrza, Kraków, małopolskie","Lubelska, Krowodrza, Krowodrza, Kraków, małopolskie","Lubelska, Nowy Kleparz, Krowodrza, Kraków, województwo małopolskie, 30-015, Polska",50.0738063,19.9301221
"Bronowicka 42, Bronowice Małe, Kraków, małopolskie","Bronowicka 42, Bronowice Małe, Kraków, małopolskie","42, Bronowicka, Bronowice, Kraków, województwo małopolskie, 30-091, Polska",50.07794,19.8999389
"Cichociemnych AK, Czyżyny, Kraków, małopolskie","Cichociemnych AK, Czyżyny, Kraków, małopolskie","Cichociemnych AK, Beszcz, Łęg, Czyżyny, Kraków, województwo małopolskie, 31-564, Polska",50.0609804,19.9924367
"Polonijna, Prokocim, Kraków, małopolskie","Polonijna, Prokocim, Kraków, małopolskie","Polonijna, Bieżanów-Prokocim, Kraków, województwo małopolskie, Polska",50.0172994,19.98890236803404
"Konarskiego, Krowodrza, Kraków, małopolskie","Konarskiego, Krowodrza, Kraków, małopolskie","Stanisława Konarskiego, Nowa Wieś, Krowodrza, Kraków, województwo małopolskie, 30-040, Polska",50.0683383,19.9208045
"Kozietulskiego, Prokocim, Kraków, małopolskie","Kozietulskiego, Prokocim, Kraków, małopolskie","Jana Kozietulskiego, Osiedle Medyków, Prokocim, Bieżanów-Prokocim, Kraków, województwo małopolskie, 30-809, Polska",50.0157884,19.997294
"Aleksandra Lubomirskiego, Stare Miasto, Stare Miasto, Kraków, małopolskie","Aleksandra Lubomirskiego, Stare Miasto, Stare Miasto, Kraków, małopolskie","Aleksandra Lubomirskiego, Wesoła, Stare Miasto, Kraków, województwo małopolskie, 31-508, Polska",50.0681073,19.9507643
"Daliowa 1, Kurdwanów, Podgórze Duchackie, Kraków, małopolskie","Daliowa 1, Kurdwanów, Podgórze Duchackie, Kraków, małopolskie","1, Daliowa, Osiedle ""Kurdwanów Nowy"", Kurdwanów, Podgórze Duchackie, Kraków, województwo małopolskie, 30-612, Polska",50.0107733,19.94862277038149
"Kazimierza Wielkiego, Krowodrza, Kraków, małopolskie","Kazimierza Wielkiego, Krowodrza, Kraków, małopolskie","Kazimierza Wielkiego, Łobzów, Krowodrza, Kraków, województwo małopolskie, 30-080, Polska",50.0744958,19.9105066
"Księcia Józefa, Przegorzały, Zwierzyniec, Kraków, małopolskie","Księcia Józefa, Przegorzały, Zwierzyniec, Kraków, małopolskie","Księcia Józefa, Przegorzały, Zwierzyniec, Kraków, województwo małopolskie, 30-254, Polska",50.0469544,19.8830182
"Romana Żelazowskiego, Kosocice, Swoszowice, Kraków, małopolskie","Romana Żelazowskiego, Kosocice, Swoszowice, Kraków, małopolskie","Romana Żelazowskiego, Luboń, Kosocice, Swoszowice, Kraków, województwo małopolskie, 30-692, Polska",49.9940486,19.9949769
"Kącik, Dzielnica XIII Podgórze, Kraków, małopolskie","Kącik, Dzielnica XIII Podgórze, Kraków, małopolskie","Kącik, Stare Podgórze, Podgórze, Kraków, województwo małopolskie, 30-550, Polska",50.0473022,19.955952
"Orawska, Stare Podgórze, Kraków, małopolskie","Orawska, Stare Podgórze, Kraków, małopolskie","Orawska, Stare Podgórze, Podgórze, Kraków, województwo małopolskie, 30-501, Polska",50.0410216,19.9383837
"Zakrzowiecka, Zakrzówek, Kraków, małopolskie","Zakrzowiecka, Zakrzówek, Kraków, małopolskie","Zakrzowiecka, Pychowice, Dębniki, Kraków, województwo małopolskie, 30-387, Polska",50.0300421,19.8963808
"Stefana Czarnieckiego, Stare Podgórze, Podgórze, Kraków, małopolskie","Stefana Czarnieckiego, Stare Podgórze, Podgórze, Kraków, małopolskie","Stefana Czarnieckiego, Stare Podgórze, Podgórze, Kraków, województwo małopolskie, 30-529, Polska",50.0439003,19.9547697
"Osiedle Na Stoku, Nowa Huta, Kraków, małopolskie","Osiedle Na Stoku, Nowa Huta, Kraków, małopolskie","Osiedle Na Stoku, Wzgórza Krzesławickie, Kraków, województwo małopolskie, Polska",50.0961111,20.0561111
"Skotniki, Dębniki, Kraków, małopolskie","Skotniki, Dębniki, Kraków, małopolskie","Skotniki, Dębniki, Kraków, województwo małopolskie, Polska",50.0167394,19.8743705
"Piłsudskiego, Stare Miasto, Kraków, małopolskie","Piłsudskiego, Stare Miasto, Kraków, małopolskie","Sarkofag Marszałka Józefa Piłsudskiego, Dziedziniec Batorego, Stare Miasto, Kraków, województwo małopolskie, 31-003, Polska",50.0545167,19.9352318
"Szujskiego, Stare Miasto, Kraków, małopolskie","Szujskiego, Stare Miasto, Kraków, małopolskie","Józefa Szujskiego, Piasek, Stare Miasto, Kraków, województwo małopolskie, 31-124, Polska",50.064303,19.9290518
"Rysi Stok, Chełm, Zwierzyniec, Kraków, małopolskie","Rysi Stok, Chełm, Zwierzyniec, Kraków, małopolskie","Rysi Stok, Chełm, Zwierzyniec, Kraków, województwo małopolskie, 30-236, Polska",50.0694707,19.8534524
